time_step,actual_roll,actual_pitch,actual_yaw,actual_depth,measured_roll,measured_pitch,measured_yaw,measured_depth
0,0.1,0.2,0.3,0.0
1,0.09999393332174945,0.20000253556609857,0.3000060083686434,0.0
2,0.09997877675631436,0.20000887024743497,0.30002101925742647,0.0
3,0.09995459615208369,0.20001897652269682,0.3000449674508595,0.0
4,0.09992148261225788,0.20003281631532976,0.30007776272137804,0.0
5,0.09987952670929451,0.20005035177059952,0.30011931536706116,0.0
6,0.0998288182736235,0.20007154534389673,0.30016953642088656,0.0
7,0.09976944639760586,0.200096359799081,0.30022833764681056,0.0
8,0.09970149944126167,0.20012475820608544,0.3002956315340959,0.0
9,0.09962506503797036,0.20015670393853302,0.30037133129166693,0.0
10,0.09954023010012866,0.20019216067137047,0.30045535084250696,0.0
11,0.09944708082476622,0.20023109237852002,0.3005476048180969,0.0
12,0.09934570269911919,0.20027346333054885,0.30064800855289614,0.0
13,0.09923618050616213,0.2003192380923558,0.30075647807886435,0.0
14,0.0991185983300985,0.20036838152087566,0.3008729301200243,0.0
15,0.09899303956180994,0.20042085876280066,0.3009972820870655,0.0
16,0.09885958690426463,0.200476635252319,0.30112945207198827,0.0
17,0.09871832237788519,0.2005356767088706,0.30126935884278805,0.0
18,0.09856932732587606,0.2005979491349194,0.30141692183817964,0.0
19,0.09841268241951097,0.20066341881374297,0.30157206116236085,0.0
20,0.09824846766338054,0.20073205230723826,0.30173469757981597,0.0
21,0.09807676240060037,0.2008038164537443,0.3019047525101579,0.0
22,0.09789764531797995,0.2008786783658811,0.3020821480230095,0.0
23,0.09771119445115249,0.20095660542840513,0.3022668068329231,0.0
24,0.09751748718966609,0.2010375652960806,0.30245865229433905,0.0
25,0.0973166002820365,0.20112152589156743,0.3026576083965813,0.0
26,0.0971086098407616,0.20120845540332463,0.30286359975889166,0.0
27,0.0968935913472981,0.20129832228353,0.30307655162550123,0.0
28,0.09667161965700041,0.20139109524601542,0.30329638986073915,0.0
29,0.09644276900402228,0.20148674326421773,0.3035230409441783,0.0
30,0.09620711300618116,0.2015852355691454,0.30375643196581786,0.0
31,0.0959647246697858,0.20168654164736038,0.3039964906213023,0.0
32,0.09571567639442713,0.20179063123897548,0.30424314520717677,0.0
33,0.09546003997773285,0.2018974743356669,0.3044963246161783,0.0
34,0.09519788662008584,0.2020070411787019,0.3047559583325629,0.0
35,0.09492928692930674,0.20211930225698152,0.3050219764274681,0.0
36,0.09465431092530091,0.20223422830509807,0.3052943095543106,0.0
37,0.09437302804467002,0.20235179030140768,0.30557288894421936,0.0
38,0.09408550714528854,0.2024719594661173,0.3058576464015029,0.0
39,0.0937918165108454,0.2025947072593864,0.3061485142991516,0.0
40,0.0934920238553509,0.20272000537944326,0.3064454255743738,0.0
41,0.09318619632760942,0.20284782576071553,0.3067483137241666,0.0
42,0.09287440051565789,0.202978140571975,0.3070571128009196,0.0
43,0.09255670245117031,0.20311092221449678,0.30737175740805284,0.0
44,0.09223316761382883,0.20324614332023241,0.307692182695688,0.0
45,0.09190386093566116,0.20338377674999703,0.30801832435635224,0.0
46,0.09156884680534502,0.2035237955916703,0.3083501186207154,0.0
47,0.09122818907247952,0.20366617315841132,0.3086875022533594,0.0
48,0.0908819510518239,0.20381088298688707,0.3090304125485804,0.0
49,0.09053019552750377,0.20395789883551446,0.3093787873262228,0.0
50,0.09017298475718516,0.20410719468271596,0.30973256492754525,0.0
51,0.08981038047621652,0.2042587447251885,0.31009168421111843,0.0
52,0.08944244390173894,0.2044125233761858,0.3104560845487541,0.0
53,0.08906923573676491,0.20456850526381368,0.3108257058214657,0.0
54,0.08869081617422563,0.20472666522933886,0.3112004884154595,0.0
55,0.08830724490098733,0.20488697832551028,0.31158037321815707,0.0
56,0.08791858110183672,0.20504941981489377,0.31196530161424785,0.0
57,0.08752488346343569,0.20521396516821924,0.3123552154817723,0.0
58,0.08712621017824576,0.2053805900627408,0.31275005718823523,0.0
59,0.08672261894842216,0.20554927038060927,0.3131497695867487,0.0
60,0.08631416698967805,0.20571998220725765,0.31355429601220514,0.0
61,0.08590091103511888,0.20589270182979855,0.3139635802774793,0.0
62,0.08548290733904734,0.2060674057354343,0.31437756666966,0.0
63,0.08506021168073881,0.20624407060987923,0.3147961999463107,0.0
64,0.08463287936818782,0.20642267333579417,0.31521942533175895,0.0
65,0.08420096524182558,0.20660319099123292,0.3156471885134142,0.0
66,0.08376452367820875,0.20678560084810088,0.3160794356381146,0.0
67,0.08332360859367983,0.20696988037062553,0.3165161133085012,0.0
68,0.08287827344799925,0.20715600721383867,0.31695716857942113,0.0
69,0.0824285712479493,0.2073439592220705,0.31740254895435754,0.0
70,0.08197455455091038,0.20753371442745525,0.31785220238188794,0.0
71,0.0815162754684094,0.20772525104844847,0.3183060772521694,0.0
72,0.08105378566964092,0.20791854748835573,0.3187641223934513,0.0
73,0.08058713638496091,0.20811358233387273,0.3192262870686147,0.0
74,0.08011637840935355,0.20831033435363677,0.3196925209717389,0.0
75,0.07964156210587112,0.20850878249678934,0.32016277422469414,0.0
76,0.07916273740904727,0.20870890589154995,0.32063699737376106,0.0
77,0.07867995382828388,0.20891068384380096,0.32111514138627617,0.0
78,0.07819326045121167,0.2091140958356834,0.32159715764730334,0.0
79,0.07770270594702465,0.20931912152420376,0.32208299795633094,0.0
80,0.07720833856978886,0.2095257407398514,0.322572614523995,0.0
81,0.07671020616172534,0.20973393348522684,0.3230659599688273,0.0
82,0.07620835615646768,0.20994367993368082,0.32356298731402916,0.0
83,0.07570283558229422,0.21015496042796358,0.3240636499842697,0.0
84,0.07519369106533524,0.21036775547888495,0.32456790180250955,0.0
85,0.07468096883275518,0.2105820457639847,0.32507569698684896,0.0
86,0.07416471471591016,0.21079781212621332,0.3255869901474002,0.0
87,0.07364497415348092,0.21101503557262288,0.3261017362831847,0.0
88,0.07312179219458155,0.21123369727306837,0.3266198907790536,0.0
89,0.07259521350184382,0.21145377855891878,0.3271414094026335,0.0
90,0.07206528235447775,0.21167526092177852,0.3276662483012942,0.0
91,0.07153204265130822,0.2118981260122186,0.32819436399914176,0.0
92,0.07099553791378807,0.21212235563851778,0.3287257133940338,0.0
93,0.07045581128898762,0.21234793176541344,0.3292602537546184,0.0
94,0.06991290555256105,0.2125748365128623,0.32979794271739626,0.0
95,0.06936686311168958,0.21280305215481063,0.3303387382838052,0.0
96,0.06881772600800179,0.21303256111797422,0.330882598817328,0.0
97,0.0682655359204712,0.2132633459806277,0.33142948304062225,0.0
98,0.06771033416829121,0.21349538947140345,0.3319793500326728,0.0
99,0.06715216171372772,0.2137286744680996,0.33253215922596646,0.0
100,0.06659105916494944,0.21396318399649772,0.3330878704036884,0.0
101,0.0660270667788362,0.21419890122918941,0.3336464436969409,0.0
102,0.0654602244637653,0.2144358094844122,0.33420783958198325,0.0
103,0.06489057178237619,0.21467389222489439,0.3347720188774935,0.0
104,0.06431814795431355,0.21491313305670906,0.3353389427418518,0.0
105,0.063742991858949,0.215153515728137,0.335908572670444,0.0
106,0.06316514203808149,0.21539502412853842,0.3364808704929875,0.0
107,0.06258463669861675,0.21563764228723345,0.3370557983708773,0.0
108,0.0620015137152257,0.2158813543723916,0.33763331879455244,0.0
109,0.06141581063298219,0.21612614468992958,0.3382133945808839,0.0
110,0.060827564669980086,0.21637199768241808,0.33879598887058215,0.0
111,0.06023681271992997,0.21661889792799668,0.3393810651256253,0.0
112,0.05964359135473552,0.2168668301392976,0.33996858712670724,0.0
113,0.05904793682704978,0.21711577916237768,0.3405585189707056,0.0
114,0.05844988507281145,0.21736572997565867,0.3411508250681698,0.0
115,0.05784947171376139,0.217616667688876,0.3417454701408283,0.0
116,0.057246732059939395,0.2178685775420355,0.34234241921911573,0.0
117,0.05664170111216154,0.2181214449043785,0.34294163763971913,0.0
118,0.05603441356447806,0.2183752552733548,0.3435430910431435,0.0
119,0.05542490380661212,0.21862999427360402,0.3441467453712962,0.0
120,0.054813205926379435,0.2188856476559445,0.34475256686509026,0.0
121,0.05419935371208901,0.21914220129637035,0.34536052206206674,0.0
122,0.05358338065492509,0.21939964119505634,0.34597057779403534,0.0
123,0.052965319951310506,0.21965795347537043,0.34658270118473355,0.0
124,0.05234520450525148,0.21991712438289424,0.3471968596475042,0.0
125,0.05172306693066415,0.22017714028445098,0.347813020882991,0.0
126,0.05109893955368285,0.22043798766714112,0.3484311528768524,0.0
127,0.05047285441495037,0.2206996531373855,0.3490512238974931,0.0
128,0.049844843271890225,0.22096212341997598,0.34967320249381334,0.0
129,0.04921493760096122,0.22122538535713362,0.35029705749297585,0.0
130,0.048583168599894325,0.221489425907574,0.3509227579981903,0.0
131,0.04794956718991206,0.2217542321455801,0.351550273386515,0.0
132,0.04731416401793048,0.22201979126008217,0.35217957330667604,0.0
133,0.046676989458743975,0.22228609055374512,0.3528106276769031,0.0
134,0.04603807361719291,0.22255311744206283,0.3534434066827825,0.0
135,0.045397446330314305,0.2228208594524595,0.35407788077512725,0.0
136,0.04475513716947574,0.22308930422339834,0.3547140206678631,0.0
137,0.04411117544249245,0.2233584395034969,0.3553517973359319,0.0
138,0.04346559019572792,0.22362825315064946,0.3559911820132109,0.0
139,0.042818410216177986,0.22389873313115644,0.3566321461904485,0.0
140,0.04216966403353865,0.22416986751886028,0.3572746616132161,0.0
141,0.04151937992225766,0.2244416444942885,0.35791870027987627,0.0
142,0.04086758590357007,0.22471405234380312,0.3585642344395664,0.0
143,0.0402143097475178,0.22498707945875693,0.3592112365901985,0.0
144,0.03955957897495343,0.22526071433465633,0.3598596794764743,0.0
145,0.03890342085952826,0.2255349455703307,0.3605095360879164,0.0
146,0.03824586242966483,0.22580976186710836,0.3611607796569144,0.0
147,0.03758693047051395,0.22608515202799873,0.36181338365678656,0.0
148,0.036926651525896435,0.22636110495688133,0.3624673217998566,0.0
149,0.036265051900229606,0.22663760965770072,0.36312256803554543,0.0
150,0.035602157660438706,0.22691465523366794,0.3637790965484783,0.0
151,0.03493799463785334,0.2271922308864682,0.364436881756606,0.0
152,0.03427258843008906,0.22747032591547475,0.3650958983093415,0.0
153,0.03360596440291421,0.2277489297169689,0.365756121085711,0.0
154,0.032938147692102134,0.22802803178336606,0.36641752519251897,0.0
155,0.03226916320526888,0.22830762170244814,0.3670800859625284,0.0
156,0.03159903562369652,0.2285876891566016,0.3677437789526547,0.0
157,0.03092778940414215,0.22886822392206166,0.36840857994217396,0.0
158,0.030255448780632747,0.22914921586816242,0.36907446493094515,0.0
159,0.029582037766245954,0.22943065495659282,0.3697414101376465,0.0
160,0.028907580154876912,0.22971253124065844,0.3704093919980254,0.0
161,0.02823209952299124,0.22999483486454908,0.37107838716316216,0.0
162,0.027555619231364303,0.2302775560626121,0.3717483724977474,0.0
163,0.026878162426806827,0.2305606851586314,0.3724193250783728,0.0
164,0.02619975204387701,0.2308442125651121,0.3730912221918354,0.0
165,0.02552041080657922,0.2311281287825707,0.3737640413334552,0.0
166,0.024840161230049382,0.23141242439883106,0.37443776020540576,0.0
167,0.024159025622227142,0.23169709008832565,0.375112356715058,0.0
168,0.023477026085514965,0.2319821166114023,0.37578780897333697,0.0
169,0.022794184518424212,0.2322674948136365,0.3764640952930915,0.0
170,0.02211052261720833,0.23255321562514902,0.3771411941874766,0.0
171,0.021426061877483235,0.23283927005992883,0.3778190843683486,0.0
172,0.020740823595835026,0.23312564921516138,0.3784977447446727,0.0
173,0.020054828871415076,0.23341234427056215,0.37917715442094313,0.0
174,0.019368098607522657,0.23369934648771534,0.37985729269561586,0.0
175,0.01868065351317514,0.23398664720941784,0.38053813905955314,0.0
176,0.01799251410466592,0.2342742378590282,0.3812196731944805,0.0
177,0.01730370070711012,0.2345621099398209,0.381901874971456,0.0
178,0.016614233455978206,0.23485025503434548,0.38258472444935104,0.0
179,0.015924132298617572,0.23513866480379075,0.3832682018733436,0.0
180,0.015233416995762222,0.23542733098735405,0.38395228767342265,0.0
181,0.014542107123030626,0.23571624540161537,0.38463696246290496,0.0
182,0.013850222072411841,0.23600539993991634,0.3853222070369629,0.0
183,0.013157781053740002,0.2362947865717442,0.3860080023711643,0.0
184,0.012464803096157261,0.23658439734212044,0.3866943296200233,0.0
185,0.01177130704956527,0.23687422437099442,0.38738117011556294,0.0
186,0.011077311586065309,0.2371642598526415,0.38806850536588866,0.0
187,0.010382835201387126,0.23745449605506605,0.38875631705377317,0.0
188,0.0096878962163066,0.23774492531940908,0.3894445870352524,0.0
189,0.008992512778052303,0.23803554005936053,0.3901332973382325,0.0
190,0.00829670286170104,0.23832633276057608,0.39082243016110724,0.0
191,0.007600484271562489,0.23861729598009862,0.3915119678713872,0.0
192,0.006903874642552979,0.23890842234578422,0.3922018930043387,0.0
193,0.006206891441558527,0.2391997045557325,0.39289218826163413,0.0
194,0.005509551968787205,0.23949113537772163,0.39358283651001225,0.0
195,0.004811873359110924,0.23978270764864754,0.39427382077994944,0.0
196,0.004113872583396713,0.24007441427396772,0.39496512426434116,0.0
197,0.003415566449827588,0.24036624822714925,0.39565673031719373,0.0
198,0.0027169716052130766,0.24065820254912115,0.3963486224523262,0.0
199,0.002018104536289495,0.24095027034773103,0.3970407843420829,0.0
200,0.0013189815710100495,0.24124244479720605,0.3977331998160553,0.0
201,0.0006196188798248428,0.24153471913761798,0.3984258528598146,0.0
202,-7.996752304912866e-05,0.24182708667435251,0.3991187276136535,0.0
203,-0.000779761778367916,0.24211954077758274,0.39981180837133884,0.0
204,-0.0014797481806104137,0.2424120748817467,0.40050507957887277,0.0
205,-0.0021799111767379343,0.24270468248502908,0.4011985258332646,0.0
206,-0.002880235364963484,0.24299735714884677,0.4018921318813117,0.0
207,-0.0035807054935306643,0.24329009249733877,0.4025858826183902,0.0
208,-0.004281306459502121,0.2435828822168598,0.40327976308725505,0.0
209,-0.0049820233075574686,0.243875720055478,0.40397375847684946,0.0
210,-0.005682841228800613,0.24416859982247646,0.4046678541211237,0.0
211,-0.0063837455595764005,0.24446151538785882,0.4053620354978631,0.0
212,-0.007084721780296513,0.24475446068185847,0.40605628822752515,0.0
213,-0.007785755514274548,0.2450474296944519,0.40675059807208586,0.0
214,-0.008486832526570206,0.24534041647487553,0.407444950933895,0.0
215,-0.009187938722842497,0.24563341513114662,0.4081393328545403,0.0
216,-0.009889060148211936,0.24592641982958763,0.4088337300137206,0.0
217,-0.010590182986131602,0.24621942479435455,0.40952812872812777,0.0
218,-0.011291293557267044,0.24651242430696874,0.41022251545033744,0.0
219,-0.011992378318384922,0.24680541270585252,0.4109168767677081,0.0
220,-0.012693423861250344,0.2470983843858683,0.4116111994012892,0.0
221,-0.013394416911532807,0.24739133379786146,0.4123054702047377,0.0
222,-0.014095344327720697,0.24768425544820658,0.4129996761632427,0.0
223,-0.014796193100044258,0.24797714389835743,0.413693804392459,0.0
224,-0.015496950349406981,0.24826999376440032,0.4143878421374489,0.0
225,-0.01619760332632534,0.24856279971661102,0.4150817767716317,0.0
226,-0.016898139409876802,0.24885555647901514,0.41577559579574225,0.0
227,-0.01759854610665606,0.24914825882895184,0.4164692868367969,0.0
228,-0.018298811049739412,0.24944090159664106,0.4171628376470681,0.0
229,-0.018998921997657237,0.2497334796647541,0.4178562361030665,0.0
230,-0.019698866833374473,0.25002598796798753,0.4185494702045316,0.0
231,-0.02039863356327908,0.25031842149264033,0.4192425280734296,0.0
232,-0.021098210316178374,0.25061077527619463,0.4199353979529596,0.0
233,-0.021797585342303225,0.25090304440689937,0.42062806820656723,0.0
234,-0.02249674701232,0.2511952240233573,0.4213205273169663,0.0
235,-0.023195683816350236,0.2514873093141155,0.42201276388516773,0.0
236,-0.023894384362997956,0.2517792955172586,0.42270476662951634,0.0
237,-0.024592837378384583,0.2520711779200055,0.4233965243847351,0.0
238,-0.025291031705191376,0.2523629518583093,0.4240880261009765,0.0
239,-0.02598895630170934,0.25265461271646006,0.42477926084288214,0.0
240,-0.026686600240896557,0.2529461559266908,0.4254702177886487,0.0
241,-0.027383952709442865,0.2532375769687866,0.4261608862291017,0.0
242,-0.02808100300684183,0.25352887136969693,0.4268512555667766,0.0
243,-0.028777740544469965,0.25382003470315034,0.4275413153150068,0.0
244,-0.029474154844673126,0.2541110625892731,0.4282310550970187,0.0
245,-0.03017023553986004,0.2544019506942099,0.4289204646450343,0.0
246,-0.030865972371602886,0.2546926947297484,0.4296095337993801,0.0
247,-0.03156135518974492,0.2549832904529459,0.43029825250760356,0.0
248,-0.03225637395151503,0.2552737336657591,0.43098661082359613,0.0
249,-0.03295101872064921,0.2555640202146775,0.4316745989067232,0.0
250,-0.03364527966651888,0.25585414599035844,0.43236220702096084,0.0
251,-0.034339147063266004,0.25614410692726586,0.4330494255340392,0.0
252,-0.035032611288944936,0.2564338990033117,0.4337362449165927,0.0
253,-0.03572566282467099,0.2567235182394999,0.4344226557413169,0.0
254,-0.03641829225377561,0.25701296069957325,0.4351086486821316,0.0
255,-0.037110490260968146,0.25730222248966306,0.4357942145133511,0.0
256,-0.03780224763150416,0.25759129975794154,0.43647934410885997,0.0
257,-0.038493555250360204,0.25788018869427687,0.43716402844129637,0.0
258,-0.039184404101415035,0.25816888552989087,0.43784825858124077,0.0
259,-0.039874785266637215,0.2584573865370196,0.43853202569641164,0.0
260,-0.04056468992527904,0.2587456880285762,0.4392153210508671,0.0
261,-0.04125410935307675,0.25903378635781676,0.4398981360042127,0.0
262,-0.041943034921456956,0.2593216779180084,0.4405804620108158,0.0
263,-0.04263145809674926,0.2596093591421004,0.4412622906190256,0.0
264,-0.04331937043940502,0.25989682650239754,0.44194361347039957,0.0
265,-0.044006763603222185,0.2601840765102359,0.4426244222989356,0.0
266,-0.04469362933457616,0.2604711057156616,0.4433047089303106,0.0
267,-0.04537995947165669,0.26075791070711174,0.4439844652811244,0.0
268,-0.04606574594371068,0.2610444881110977,0.4446636833581502,0.0
269,-0.04675098077029086,0.2613308345918914,0.44534235525759047,0.0
270,-0.0474356560605104,0.26161694685121334,0.4460204731643385,0.0
271,-0.04811976401230323,0.2619028216279237,0.4466980293512463,0.0
272,-0.04880329691169018,0.26218845569771554,0.4473750161783974,0.0
273,-0.04948624713205081,0.26247384587281014,0.44805142609238613,0.0
274,-0.05016860713340093,0.26275898900165523,0.44872725162560184,0.0
275,-0.05085036946167573,0.2630438819686253,0.44940248539551914,0.0
276,-0.05153152674801846,0.2633285216937242,0.45007712010399337,0.0
277,-0.05221207170807472,0.26361290513229,0.4507511485365618,0.0
278,-0.05289199714129219,0.2638970292747025,0.45142456356175004,0.0
279,-0.053571295930225804,0.26418089114609256,0.4520973581303841,0.0
280,-0.054249961039848374,0.26446448780605397,0.45276952527490755,0.0
281,-0.05492798551686655,0.2647478163483576,0.45344105810870416,0.0
282,-0.055605362489042104,0.2650308739006675,0.4541119498254258,0.0
283,-0.056282085164518526,0.2653136576242594,0.45478219369832545,0.0
284,-0.05695814683115281,0.26559616471374153,0.45545178307959566,0.0
285,-0.057633540855852476,0.26587839239677724,0.4561207113997118,0.0
286,-0.05830826068391777,0.26616033793381016,0.45678897216678066,0.0
287,-0.05898229983838891,0.2664419986177913,0.4574565589658942,0.0
288,-0.059655651919398485,0.26672337177390804,0.4581234654584881,0.0
289,-0.06032831060352887,0.267004454759316,0.4587896853817052,0.0
290,-0.061000269643174614,0.26728524496287204,0.45945521254776467,0.0
291,-0.06167152286590983,0.26756573980487,0.4601200408433348,0.0
292,-0.06234206417386048,0.2678459367367781,0.46078416422891194,0.0
293,-0.06301188754308154,0.2681258332409788,0.4614475767382034,0.0
294,-0.06368098702293903,0.2684054268305101,0.4621102724775157,0.0
295,-0.06434935673549687,0.26868471504880964,0.462772245625147,0.0
296,-0.06501699087490842,0.2689636954694599,0.46343349043078513,0.0
297,-0.06568388370681287,0.26924236569593607,0.4640940012149093,0.0
298,-0.06635002956773624,0.2695207233613555,0.46475377236819715,0.0
299,-0.06701542286449703,0.2697987661282294,0.46541279835093624,0.0
300,-0.06768005807361664,0.27007649168821607,0.46607107369244,0.0
301,-0.06834392974073414,0.27035389776187646,0.4667285929904683,0.0
302,-0.06900703248002579,0.27063098209843134,0.4673853509106527,0.0
303,-0.069669360973629,0.27090774247552046,0.46804134218592575,0.0
304,-0.07033090997107075,0.2711841766989637,0.46869656161595524,0.0
305,-0.0709916742887005,0.27146028260252386,0.4693510040665824,0.0
306,-0.07165164880912747,0.27173605804767137,0.47000466446926487,0.0
307,-0.07231082848066236,0.2720115009233509,0.47065753782052355,0.0
308,-0.07296920831676332,0.2722866091457498,0.4713096191813943,0.0
309,-0.0736267833954863,0.2725613806580681,0.47196090367688337,0.0
310,-0.07428354885893966,0.27283581343029073,0.47261138649542733,0.0
311,-0.07493949991274301,0.27310990545896097,0.4732610628883574,0.0
312,-0.07559463182549028,0.2733836547669562,0.47390992816936744,0.0
313,-0.07624893992821692,0.27365705940326496,0.4745579777139866,0.0
314,-0.0769024196138713,0.27393011744276596,0.47520520695905566,0.0
315,-0.07755506633679018,0.2742028269860089,0.4758516114022077,0.0
316,-0.07820687561217833,0.27447518615899674,0.47649718660135276,0.0
317,-0.07885784301559205,0.27474719311296975,0.4771419281741664,0.0
318,-0.07950796418242688,0.27501884602419135,0.4777858317975823,0.0
319,-0.08015723480740919,0.27529014309373556,0.47842889320728904,0.0
320,-0.08080565064409174,0.275561082547276,0.47907110819723026,0.0
321,-0.08145320750435321,0.27583166263487674,0.47971247261910926,0.0
322,-0.08209990125790152,0.2761018816307844,0.4803529823818971,0.0
323,-0.08274572783178118,0.2763717378332225,0.4809926334513448,0.0
324,-0.08339068320988426,0.2766412295641866,0.481631421849499,0.0
325,-0.08403476343246538,0.27691035516924173,0.4822693436542216,0.0
326,-0.08467796459566031,0.2771791130173211,0.4829063949987132,0.0
327,-0.08532028285100837,0.27744750150052633,0.4835425720710402,0.0
328,-0.08596171440497861,0.27771551903392916,0.48417787111366534,0.0
329,-0.08660225551849957,0.27798316405537515,0.48481228842298224,0.0
330,-0.08724190250649273,0.27825043502528835,0.48544582034885336,0.0
331,-0.08788065173740967,0.27851733042647786,0.4860784632941516,0.0
332,-0.08851849963277268,0.27878384876394574,0.48671021371430556,0.0
333,-0.08915544266671914,0.27904998856469637,0.4873410681168481,0.0
334,-0.08979147736554922,0.2793157483775474,0.4879710230609686,0.0
335,-0.09042660030727732,0.2795811267729423,0.48860007515706894,0.0
336,-0.09106080812118685,0.27984612234276385,0.48922822106632213,0.0
337,-0.09169409748738847,0.2801107337001499,0.4898554575002354,0.0
338,-0.09232646513638193,0.2803749594793096,0.490481781220216,0.0
339,-0.09295790784862114,0.280638798335342,0.4911071890371406,0.0
340,-0.09358842245408269,0.28090224894405524,0.491731677810928,0.0
341,-0.0942180058318378,0.2811653100017878,0.4923552444501152,0.0
342,-0.09484665490962745,0.28142798022523074,0.49297788591143676,0.0
343,-0.09547436666344093,0.2816902583512515,0.4935995991994075,0.0
344,-0.09610113811709772,0.28195214313671896,0.49422038136590823,0.0
345,-0.09672696634183246,0.28221363335832994,0.4948402295097751,0.0
346,-0.09735184845588327,0.28247472781243704,0.4954591407763916,0.0
347,-0.09797578162408324,0.28273542531487783,0.49607711235728436,0.0
348,-0.09859876305745516,0.2829957247008053,0.4966941414897215,0.0
349,-0.09922079001280927,0.2832556248245197,0.49731022545631465,0.0
350,-0.0998418597923443,0.2835151245593017,0.4979253615846235,0.0
351,-0.10046196974325153,0.28377422279724684,0.4985395472467642,0.0
352,-0.10108111725732188,0.28403291844910106,0.49915277985901974,0.0
353,-0.10169929977055628,0.28429121044409794,0.4997650568814545,0.0
354,-0.10231651476277875,0.2845490977297968,0.5003763758175311,0.0
355,-0.10293275975725283,0.2848065792719223,0.5009867342137304,0.0
356,-0.10354803232030071,0.28506365405420525,0.5015961296591743,0.0
357,-0.10416233006092557,0.2853203210782244,0.5022045597852521,0.0
358,-0.10477565063043663,0.28557657936325,0.502812022265249,0.0
359,-0.10538799172207738,0.285832427946088,0.5034185148139778,0.0
360,-0.10599935107065647,0.28608786588092594,0.5040240351874137,0.0
361,-0.10660972645218161,0.2863428922391797,0.5046285811823314,0.0
362,-0.10721911568349632,0.28659750610934154,0.5052321506359461,0.0
363,-0.10782751662191944,0.28685170659682946,0.5058347414255554,0.0
364,-0.10843492716488756,0.28710549282383757,0.5064363514681864,0.0
365,-0.1090413452496001,0.2873588639291878,0.5070369787202438,0.0
366,-0.10964676885266729,0.2876118190681824,0.5076366211771607,0.0
367,-0.11025119598976083,0.28786435741245814,0.5082352768730537,0.0
368,-0.11085462471526727,0.28811647814984115,0.508832943880379,0.0
369,-0.11145705312194415,0.28836818048420315,0.5094296203095922,0.0
370,-0.11205847934057873,0.2886194636353188,0.51002530430881,0.0
371,-0.11265890153964951,0.28887032683872405,0.5106199940634756,0.0
372,-0.11325831792499023,0.28912076934557557,0.5112136877960254,0.0
373,-0.11385672673945667,0.28937079042251157,0.5118063837655594,0.0
374,-0.1144541262625959,0.2896203893515133,0.5123980802675138,0.0
375,-0.11505051481031825,0.28986956542976794,0.5129887756333356,0.0
376,-0.11564589073457167,0.2901183179695324,0.5135784682301607,0.0
377,-0.11624025242301882,0.2903666462979982,0.5141671564604942,0.0
378,-0.11683359829871656,0.29061454975715745,0.5147548387618922,0.0
379,-0.117425926819798,0.29086202770367,0.5153415136066481,0.0
380,-0.11801723647915698,0.2911090795087312,0.5159271795014795,0.0
381,-0.11860752580413508,0.2913557045579414,0.5165118349872181,0.0
382,-0.11919679335621106,0.29160190225117555,0.5170954786385027,0.0
383,-0.11978503773069267,0.29184767200245465,0.5176781090634737,0.0
384,-0.12037225755641096,0.2920930132398179,0.5182597249034704,0.0
385,-0.12095845149541688,0.2923379254051956,0.5188403248327309,0.0
386,-0.12154361824268041,0.2925824079542835,0.5194199075580935,0.0
387,-0.12212775652579183,0.2928264603564177,0.5199984718187017,0.0
388,-0.1227108651046655,0.29307008209445085,0.5205760163857104,0.0
389,-0.1232929427712459,0.29331327266462925,0.5211525400619945,0.0
390,-0.12387398834921597,0.2935560315764707,0.521728041681861,0.0
391,-0.12445400069370767,0.2937983583526435,0.5223025201107617,0.0
392,-0.12503297869101496,0.2940402525288466,0.522875974245009,0.0
393,-0.1256109212583089,0.29428171365369,0.5234484030114941,0.0
394,-0.12618782734335499,0.294522741288577,0.524019805367407,0.0
395,-0.12676369592423278,0.29476333500758656,0.5245901802999586,0.0
396,-0.12733852600905768,0.29500349439735724,0.5251595268261058,0.0
397,-0.12791231663570485,0.2952432190569714,0.5257278439922772,0.0
398,-0.12848506687153538,0.2954825085978409,0.5262951308741031,0.0
399,-0.12905677581312452,0.29572136264359344,0.5268613865761451,0.0
400,-0.12962744258599215,0.29595978082995955,0.5274266102316305,0.0
401,-0.13019706634433523,0.296197762804661,0.5279908010021864,0.0
402,-0.1307656462707624,0.29643530822729963,0.5285539580775773,0.0
403,-0.13133318157603077,0.29667241676924727,0.5291160806754445,0.0
404,-0.13189967149878462,0.29690908811353645,0.529677168041047,0.0
405,-0.1324651153052962,0.297145321954752,0.5302372194470055,0.0
406,-0.13302951228920862,0.29738111799892347,0.5307962341930471,0.0
407,-0.1335928617712807,0.29761647596341845,0.5313542116057531,0.0
408,-0.13415516309913392,0.29785139557683665,0.5319111510383081,0.0
409,-0.1347164156470011,0.29808587657890495,0.5324670518702516,0.0
410,-0.1352766188154774,0.29831991872037295,0.5330219135072307,0.0
411,-0.1358357720312731,0.29855352176290983,0.5335757353807563,0.0
412,-0.13639387474696826,0.29878668547900167,0.5341285169479593,0.0
413,-0.13695092644076948,0.2990194096518496,0.53468025769135,0.0
414,-0.1375069266162684,0.2992516940752688,0.535230957118579,0.0
415,-0.13806187480220225,0.2994835385535885,0.5357806147622004,0.0
416,-0.13861577055221616,0.2997149429015524,0.5363292301794359,0.0
417,-0.13916861344462741,0.29994590694422,0.5368768029519416,0.0
418,-0.1397204030821916,0.3001764305168691,0.5374233326855765,0.0
419,-0.14027113909187053,0.30040651346489833,0.5379688190101725,0.0
420,-0.1408208211246019,0.300636155643731,0.5385132615793066,0.0
421,-0.14136944885507097,0.3008653569187196,0.5390566600700746,0.0
422,-0.14191702198148398,0.30109411716505097,0.5395990141828668,0.0
423,-0.14246354022534324,0.30132243626765226,0.5401403236411453,0.0
424,-0.1430090033312241,0.3015503141210976,0.540680588191223,0.0
425,-0.14355341106655362,0.3017777506295155,0.5412198076020448,0.0
426,-0.14409676322139106,0.30200474570649716,0.5417579816649697,0.0
427,-0.14463905960821008,0.3022312992750051,0.5422951101935557,0.0
428,-0.14518030006168256,0.302457411267283,0.5428311930233454,0.0
429,-0.1457204844384643,0.3026830816247659,0.5433662300116537,0.0
430,-0.14625961261698225,0.3029083102979914,0.5439002210373576,0.0
431,-0.14679768449722355,0.30313309724651105,0.5444331660006866,0.0
432,-0.14733470000052615,0.303357442438803,0.544965064823016,0.0
433,-0.1478706590693711,0.30358134585218527,0.5454959174466609,0.0
434,-0.14840556166717656,0.30380480747272914,0.5460257238346723,0.0
435,-0.1489394077780933,0.3040278272951741,0.5465544839706347,0.0
436,-0.14947219740680198,0.30425040532284264,0.547082197858465,0.0
437,-0.1500039305783119,0.3044725415675563,0.5476088655222138,0.0
438,-0.15053460733776142,0.3046942360495522,0.5481344870058672,0.0
439,-0.15106422775021994,0.3049154887974,0.5486590623731511,0.0
440,-0.15159279190049146,0.3051362998479199,0.5491825917073364,0.0
441,-0.1521202998929197,0.30535666924610105,0.5497050751110464,0.0
442,-0.15264675185119464,0.3055765970450207,0.5502265127060648,0.0
443,-0.1531721479181609,0.3057960833057639,0.5507469046331464,0.0
444,-0.15369648825562726,0.30601512809734405,0.5512662510518279,0.0
445,-0.15421977304417808,0.30623373149662364,0.5517845521402419,0.0
446,-0.1547420024829858,0.3064518935882362,0.5523018080949306,0.0
447,-0.1552631767896253,0.3066696144645085,0.5528180191306622,0.0
448,-0.1557832961998896,0.3068868942253834,0.5533331854802485,0.0
449,-0.15630236096760683,0.30710373297834326,0.5538473073943636,0.0
450,-0.1568203713644591,0.30732013083833426,0.5543603851413644,0.0
451,-0.15733732767980232,0.30753608792769105,0.5548724190071126,0.0
452,-0.15785323022048783,0.307751604376062,0.5553834092947973,0.0
453,-0.1583680793106852,0.30796668032033525,0.5558933563247606,0.0
454,-0.15888187529170658,0.3081813159045651,0.5564022604343225,0.0
455,-0.15939461852183248,0.3083955112798991,0.5569101219776094,0.0
456,-0.15990630937613878,0.3086092666045058,0.557416941325382,0.0
457,-0.16041694824632527,0.30882258204350305,0.5579227188648662,0.0
458,-0.16092653554054545,0.3090354577688865,0.5584274549995841,0.0
459,-0.1614350716832378,0.3092478939594595,0.558931150149187,0.0
460,-0.16194255711495834,0.30945989080076264,0.5594338047492898,0.0
461,-0.1624489922922144,0.3096714484850044,0.5599354192513062,0.0
462,-0.16295437768730003,0.3098825672109922,0.5604359941222856,0.0
463,-0.1634587137881324,0.3100932471840642,0.5609355298447516,0.0
464,-0.16396200109808973,0.31030348861602114,0.5614340269165409,0.0
465,-0.16446424013585034,0.3105132917250593,0.5619314858506443,0.0
466,-0.1649654314352332,0.31072265673570365,0.5624279071750489,0.0
467,-0.16546557554503957,0.31093158387874165,0.5629232914325807,0.0
468,-0.16596467302889598,0.3111400733911575,0.5634176391807499,0.0
469,-0.1664627244650985,0.3113481255160672,0.5639109509915963,0.0
470,-0.16695973044645818,0.31155574050265367,0.5644032274515358,0.0
471,-0.16745569158014784,0.31176291860610267,0.5648944691612098,0.0
472,-0.16795060848754997,0.31196966008753935,0.5653846767353333,0.0
473,-0.16844448180410598,0.31217596521396496,0.5658738508025468,0.0
474,-0.1689373121791665,0.3123818342581944,0.5663619920052672,0.0
475,-0.169429100275843,0.31258726749879406,0.5668491009995412,0.0
476,-0.1699198467708606,0.31279226522002035,0.5673351784548998,0.0
477,-0.1704095523544121,0.31299682771175846,0.567820225054213,0.0
478,-0.17089821773001299,0.3132009552694618,0.5683042414935473,0.0
479,-0.17138584361435785,0.313404648194092,0.5687872284820225,0.0
480,-0.1718724307371778,0.31360790679205913,0.5692691867416709,0.0
481,-0.17235797984109916,0.3138107313751628,0.5697501170072979,0.0
482,-0.17284249168150312,0.31401312226053313,0.570230020026342,0.0
483,-0.17332596702638675,0.31421507977057284,0.570708896558738,0.0
484,-0.17380840665622488,0.31441660423289947,0.5711867473767799,0.0
485,-0.17428981136383337,0.31461769598028805,0.5716635732649854,0.0
486,-0.17477018195423324,0.31481835535061437,0.5721393750199617,0.0
487,-0.17524951924451604,0.31501858268679855,0.5726141534502719,0.0
488,-0.1757278240637103,0.3152183783367494,0.5730879093763027,0.0
489,-0.17620509725264896,0.31541774265330874,0.5735606436301335,0.0
490,-0.1766813396638381,0.3156166759941964,0.5740323570554059,0.0
491,-0.17715655216132634,0.315815178721956,0.5745030505071949,0.0
492,-0.1776307356205758,0.31601325120390056,0.5749727248518806,0.0
493,-0.17810389092833367,0.3162108938120589,0.5754413809670215,0.0
494,-0.1785760189825051,0.31640810692312255,0.5759090197412283,0.0
495,-0.17904712069202694,0.31660489091839283,0.5763756420740391,0.0
496,-0.17951719697674265,0.3168012461837286,0.5768412488757952,0.0
497,-0.17998624876727815,0.31699717310949427,0.5773058410675186,0.0
498,-0.18045427700491867,0.3171926720905083,0.5777694195807896,0.0
499,-0.18092128264148669,0.317387743525992,0.5782319853576265,0.0
500,-0.18138726663922075,0.3175823878195193,0.5786935393503649,0.0
501,-0.18185222997065534,0.31777660537896585,0.5791540825215393,0.0
502,-0.1823161736185017,0.3179703966164596,0.5796136158437647,0.0
503,-0.1827790985755297,0.31816376194833124,0.58007214029962,0.0
504,-0.1832410058444506,0.3183567017950652,0.5805296568815315,0.0
505,-0.18370189643780072,0.318549216581251,0.5809861665916581,0.0
506,-0.18416177137782616,0.31874130673553497,0.581441670441777,0.0
507,-0.1846206316963685,0.3189329726905724,0.5818961694531701,0.0
508,-0.18507847843475123,0.3191242148829802,0.5823496646565123,0.0
509,-0.18553531264366735,0.3193150337532897,0.5828021570917595,0.0
510,-0.18599113538306777,0.3195054297458999,0.5832536478080387,0.0
511,-0.18644594772205056,0.3196954033090315,0.5837041378635376,0.0
512,-0.18689975073875129,0.3198849548946807,0.5841536283253967,0.0
513,-0.1873525455202341,0.32007408495857376,0.5846021202696012,0.0
514,-0.18780433316238376,0.32026279396012175,0.5850496147808738,0.0
515,-0.18825511476979861,0.3204510823623759,0.5854961129525691,0.0
516,-0.1887048914556843,0.32063895063198306,0.5859416158865682,0.0
517,-0.18915366434174855,0.3208263992391417,0.5863861246931746,0.0
518,-0.18960143455809655,0.32101342865755816,0.5868296404910104,0.0
519,-0.1900482032431276,0.32120003936440333,0.587272164406914,0.0
520,-0.19049397154343214,0.32138623184026976,0.5877136975758384,0.0
521,-0.19093874061368998,0.32157200656912893,0.5881542411407499,0.0
522,-0.19138251161656922,0.321757364038289,0.5885937962525286,0.0
523,-0.191825285722626,0.32194230473835284,0.5890323640698688,0.0
524,-0.19226706411020514,0.3221268291631767,0.5894699457591805,0.0
525,-0.19270784796534163,0.3223109378098286,0.5899065424944923,0.0
526,-0.19314763848166278,0.3224946311785477,0.5903421554573537,0.0
527,-0.19358643686029134,0.3226779097727037,0.5907767858367402,0.0
528,-0.19402424430974935,0.32286077409875663,0.5912104348289572,0.0
529,-0.19446106204586286,0.3230432246662169,0.5916431036375461,0.0
530,-0.1948968912916673,0.32322526198760576,0.5920747934731905,0.0
531,-0.19533173327731373,0.32340688657841626,0.5925055055536232,0.0
532,-0.19576558923997595,0.32358809895707413,0.5929352411035347,0.0
533,-0.1961984604237582,0.32376889964489924,0.593364001354481,0.0
534,-0.19663034807960375,0.3239492891660675,0.5937917875447938,0.0
535,-0.1970612534652043,0.3241292680475729,0.5942186009194904,0.0
536,-0.19749117784491,0.3243088368191897,0.5946444427301848,0.0
537,-0.1979201224896402,0.3244879960134353,0.5950693142349992,0.0
538,-0.19834808867679518,0.32466674616553326,0.5954932166984765,0.0
539,-0.19877507769016842,0.3248450878133766,0.5959161513914937,0.0
540,-0.1992010908198596,0.3250230214974914,0.5963381195911753,0.0
541,-0.19962612936218846,0.3252005477610007,0.5967591225808085,0.0
542,-0.20005019461960924,0.3253776671495889,0.5971791616497583,0.0
543,-0.20047328790062596,0.32555438021146604,0.5975982380933832,0.0
544,-0.20089541051970833,0.32573068749733297,0.5980163532129525,0.0
545,-0.20131656379720833,0.3259065895603461,0.5984335083155636,0.0
546,-0.20173674905927763,0.32608208695608326,0.5988497047140597,0.0
547,-0.20215596763778565,0.3262571802425089,0.5992649437269494,0.0
548,-0.20257422087023821,0.3264318699799405,0.5996792266783253,0.0
549,-0.202991510099697,0.32660615673101484,0.6000925548977851,0.0
550,-0.20340783667469958,0.32678004106065434,0.6005049297203521,0.0
551,-0.20382320194918035,0.326953523536034,0.6009163524863964,0.0
552,-0.20423760728239176,0.3271266047265488,0.6013268245415576,0.0
553,-0.20465105403882658,0.3272992852037807,0.6017363472366674,0.0
554,-0.20506354358814055,0.3274715655414666,0.6021449219276731,0.0
555,-0.20547507730507591,0.3276434463154663,0.602552549975562,0.0
556,-0.20588565656938537,0.32781492810373064,0.6029592327462859,0.0
557,-0.20629528276575687,0.3279860114862701,0.6033649716106869,0.0
558,-0.20670395728373894,0.32815669704512346,0.6037697679444229,0.0
559,-0.2071116815176667,0.328326985364327,0.604173623127895,0.0
560,-0.2075184568665884,0.32849687702988367,0.6045765385461742,0.0
561,-0.20792428473419278,0.32866637262973275,0.6049785155889299,0.0
562,-0.20832916652873684,0.32883547275371966,0.6053795556503581,0.0
563,-0.2087331036629744,0.32900417799356596,0.6057796601291106,0.0
564,-0.2091360975540851,0.32917248894283985,0.606178830428225,0.0
565,-0.20953814962360423,0.32934040619692656,0.6065770679550548,0.0
566,-0.20993926129735288,0.32950793035299947,0.6069743741212007,0.0
567,-0.21033943400536897,0.3296750620099909,0.6073707503424418,0.0
568,-0.21073866918183867,0.32984180176856376,0.607766198038668,0.0
569,-0.2111369682650285,0.3300081502310829,0.6081607186338127,0.0
570,-0.21153433269721802,0.330174108001587,0.608554313555786,0.0
571,-0.21193076392463303,0.3303396756857608,0.6089469842364088,0.0
572,-0.21232626339737942,0.3305048538909073,0.609338732111347,0.0
573,-0.21272083256937754,0.33066964322592024,0.6097295586200469,0.0
574,-0.2131144728982972,0.33083404430125707,0.6101194652056702,0.0
575,-0.2135071858454932,0.3309980577289119,0.6105084533150308,0.0
576,-0.21389897287594126,0.33116168412238867,0.610896524398531,0.0
577,-0.21428983545817487,0.33132492409667486,0.6112836799100991,0.0
578,-0.2146797750642223,0.331487778268215,0.6116699213071269,0.0
579,-0.21506879316954444,0.33165024725488484,0.6120552500504081,0.0
580,-0.21545689125297296,0.3318123316759653,0.6124396676040772,0.0
581,-0.21584407079664922,0.331974032152117,0.6128231754355491,0.0
582,-0.21623033328596353,0.332135349305355,0.6132057750154586,0.0
583,-0.21661568020949507,0.33229628375902337,0.6135874678176011,0.0
584,-0.21700011305895223,0.33245683613777055,0.6139682553188737,0.0
585,-0.2173836333291136,0.33261700706752445,0.6143481389992163,0.0
586,-0.21776624251776927,0.33277679717546804,0.6147271203415539,0.0
587,-0.2181479421256629,0.332936207090015,0.6151052008317389,0.0
588,-0.21852873365643413,0.3330952374407857,0.6154823819584945,0.0
589,-0.2189086186165615,0.3332538888585833,0.6158586652133575,0.0
590,-0.21928759851530594,0.33341216197537027,0.6162340520906232,0.0
591,-0.2196656748646547,0.3335700574242447,0.6166085440872889,0.0
592,-0.2200428491792658,0.3337275758394173,0.6169821427029998,0.0
593,-0.22041912297641308,0.3338847178561882,0.6173548494399937,0.0
594,-0.2207944977759314,0.33404148411092405,0.6177266658030478,0.0
595,-0.22116897510016278,0.3341978752410358,0.618097593299424,0.0
596,-0.22154255647390259,0.33435389188495585,0.618467633438817,0.0
597,-0.22191524342434654,0.334509534682116,0.6188367877333008,0.0
598,-0.22228703748103795,0.33466480427292555,0.6192050576972767,0.0
599,-0.2226579401758156,0.3348197012987491,0.6195724448474222,0.0
600,-0.22302795304276193,0.3349742264018854,0.6199389507026389,0.0
601,-0.22339707761815183,0.3351283802255455,0.6203045767840024,0.0
602,-0.22376531544040174,0.33528216341383166,0.6206693246147114,0.0
603,-0.22413266805001936,0.3354355766117164,0.6210331957200382,0.0
604,-0.2244991369895537,0.33558862046502147,0.6213961916272793,0.0
605,-0.22486472380354566,0.3357412956203972,0.6217583138657062,0.0
606,-0.22522943003847892,0.3358936027253019,0.6221195639665169,0.0
607,-0.22559325724273138,0.3360455424279818,0.6224799434627878,0.0
608,-0.2259562069665271,0.33619711537745073,0.622839453889426,0.0
609,-0.22631828076188845,0.3363483222234702,0.623198096783122,0.0
610,-0.22667948018258893,0.33649916361652965,0.623555873682303,0.0
611,-0.2270398067841063,0.3366496402078268,0.6239127861270866,0.0
612,-0.22739926212357603,0.3367997526492482,0.6242688356592342,0.0
613,-0.22775784775974547,0.3369495015933503,0.6246240238221061,0.0
614,-0.22811556525292812,0.33709888769333995,0.6249783521606163,0.0
615,-0.22847241616495845,0.33724791160305573,0.625331822221187,0.0
616,-0.22882840205914717,0.3373965739769492,0.6256844355517052,0.0
617,-0.22918352450023688,0.33754487547006645,0.6260361937014781,0.0
618,-0.22953778505435807,0.33769281673802953,0.6263870982211901,0.0
619,-0.22989118528898553,0.3378403984370183,0.6267371506628591,0.0
620,-0.23024372677289526,0.3379876212237524,0.6270863525797941,0.0
621,-0.23059541107612164,0.3381344857554735,0.6274347055265527,0.0
622,-0.23094623976991507,0.33828099268992734,0.6277822110588992,0.0
623,-0.23129621442670004,0.3384271426853463,0.628128870733763,0.0
624,-0.23164533662003342,0.33857293640043207,0.6284746861091974,0.0
625,-0.23199360792456333,0.3387183744943382,0.6288196587443386,0.0
626,-0.2323410299159883,0.3388634576266534,0.6291637901993657,0.0
627,-0.23268760417101667,0.3390081864573841,0.62950708203546,0.0
628,-0.2330333322673267,0.33915256164693824,0.6298495358147659,0.0
629,-0.23337821578352674,0.3392965838561082,0.630191153100351,0.0
630,-0.23372225629911592,0.33944025374605474,0.6305319354561677,0.0
631,-0.23406545539444512,0.33958357197829037,0.6308718844470141,0.0
632,-0.23440781465067842,0.33972653921466345,0.6312110016384962,0.0
633,-0.23474933564975475,0.33986915611734203,0.6315492885969893,0.0
634,-0.23509001997435008,0.3400114233487981,0.6318867468896013,0.0
635,-0.23542986920783984,0.34015334157179183,0.6322233780841351,0.0
636,-0.23576888493426168,0.3402949114493561,0.6325591837490515,0.0
637,-0.23610706873827866,0.340436133644781,0.6328941654534332,0.0
638,-0.23644442220514278,0.34057700882159864,0.6332283247669485,0.0
639,-0.23678094692065876,0.34071753764356805,0.633561663259815,0.0
640,-0.23711664447114825,0.3408577207746601,0.6338941825027651,0.0
641,-0.23745151644341433,0.34099755887904276,0.6342258840670099,0.0
642,-0.2377855644247064,0.3411370526210664,0.6345567695242048,0.0
643,-0.23811879000268543,0.3412762026652493,0.6348868404464152,0.0
644,-0.23845119476538928,0.3414150096762629,0.635216098406082,0.0
645,-0.23878278030119876,0.34155347431891814,0.6355445449759878,0.0
646,-0.2391135481988037,0.3416915972581507,0.6358721817292238,0.0
647,-0.23944350004716947,0.34182937915900735,0.6361990102391561,0.0
648,-0.23977263743550375,0.34196682068663203,0.6365250320793933,0.0
649,-0.24010096195322375,0.342103922506252,0.6368502488237533,0.0
650,-0.2404284751899236,0.34224068528316426,0.6371746620462319,0.0
651,-0.24075517873534216,0.3423771096827223,0.6374982733209701,0.0
652,-0.241081074179331,0.3425131963703224,0.6378210842222231,0.0
653,-0.24140616311182292,0.3426489460113907,0.6381430963243283,0.0
654,-0.24173044712280048,0.3427843592713699,0.638464311201675,0.0
655,-0.24205392780226512,0.3429194368157065,0.6387847304286732,0.0
656,-0.24237660674020636,0.34305417930983784,0.6391043555797234,0.0
657,-0.2426984855265715,0.34318858741917935,0.6394231882291864,0.0
658,-0.24301956575123537,0.3433226618091121,0.6397412299513534,0.0
659,-0.24333984900397063,0.3434564031449702,0.6400584823204166,0.0
660,-0.24365933687441813,0.3435898120920286,0.64037494691044,0.0
661,-0.24397803095205778,0.3437228893154907,0.6406906252953299,0.0
662,-0.24429593282617953,0.3438556354804765,0.6410055190488073,0.0
663,-0.24461304408585471,0.34398805125201026,0.6413196297443784,0.0
664,-0.24492936631990767,0.34412013729500895,0.641632958955307,0.0
665,-0.24524490111688765,0.34425189427427044,0.6419455082545867,0.0
666,-0.24555965006504102,0.3443833228544617,0.6422572792149132,0.0
667,-0.2458736147522836,0.34451442370010754,0.6425682734086567,0.0
668,-0.24618679676617347,0.344645197475579,0.6428784924078359,0.0
669,-0.24649919769388404,0.3447756448450821,0.6431879377840901,0.0
670,-0.24681081912217714,0.3449057664726469,0.6434966111086533,0.0
671,-0.2471216626373767,0.34503556302211613,0.6438045139523279,0.0
672,-0.24743172982534248,0.3451650351571343,0.6441116478854585,0.0
673,-0.24774102227144415,0.3452941835411371,0.6444180144779068,0.0
674,-0.24804954156053563,0.3454230088373404,0.6447236152990256,0.0
675,-0.24835728927692963,0.3455515117087297,0.6450284519176337,0.0
676,-0.2486642670043725,0.3456796928180498,0.6453325259019912,0.0
677,-0.24897047632601937,0.345807552827794,0.6456358388197747,0.0
678,-0.2492759188244095,0.34593509240019427,0.6459383922380529,0.0
679,-0.24958059608144176,0.3460623121972107,0.6462401877232625,0.0
680,-0.24988450967835063,0.34618921288052146,0.646541226841184,0.0
681,-0.2501876611956822,0.3463157951115131,0.6468415111569183,0.0
682,-0.2504900522132706,0.3464420595512703,0.6471410422348632,0.0
683,-0.2507916843102144,0.3465680068605662,0.6474398216386903,0.0
684,-0.2510925590648538,0.34669363769985295,0.6477378509313216,0.0
685,-0.25139267805474713,0.34681895272925173,0.6480351316749074,0.0
686,-0.25169204285664876,0.34694395260854355,0.6483316654308033,0.0
687,-0.25199065504648627,0.34706863799715976,0.6486274537595484,0.0
688,-0.2522885161993383,0.3471930095541728,0.6489224982208429,0.0
689,-0.2525856278894125,0.3473170679382871,0.6492168003735264,0.0
690,-0.252881991690024,0.3474408138078297,0.6495103617755564,0.0
691,-0.25317760917357357,0.34756424782074163,0.6498031839839872,0.0
692,-0.2534724819115265,0.3476873706345687,0.6500952685549483,0.0
693,-0.25376661147439145,0.3478101829064529,0.6503866170436238,0.0
694,-0.2540599994316996,0.34793268529312343,0.6506772310042317,0.0
695,-0.25435264735198404,0.3480548784508884,0.6509671119900035,0.0
696,-0.2546445568027593,0.3481767630356261,0.6512562615531637,0.0
697,-0.2549357293505012,0.3482983397027767,0.6515446812449104,0.0
698,-0.25522616656062663,0.3484196091073336,0.6518323726153947,0.0
699,-0.2555158699974743,0.3485405719038355,0.6521193372137017,0.0
700,-0.25580484122428454,0.3486612287463582,0.6524055765878308,0.0
701,-0.2560930818031805,0.34878158028850625,0.6526910922846768,0.0
702,-0.25638059329514873,0.3489016271834052,0.6529758858500107,0.0
703,-0.25666737726002015,0.3490213700836937,0.6532599588284608,0.0
704,-0.25695343525645153,0.3491408096415155,0.6535433127634949,0.0
705,-0.257238768841907,0.34925994650851183,0.653825949197401,0.0
706,-0.2575233795726395,0.34937878133581374,0.6541078696712697,0.0
707,-0.25780726900367285,0.34949731477403456,0.6543890757249761,0.0
708,-0.2580904386887838,0.3496155474732624,0.6546695688971622,0.0
709,-0.2583728901804842,0.3497334800830527,0.6549493507252191,0.0
710,-0.25865462503000364,0.34985111325242096,0.6552284227452696,0.0
711,-0.258935644787272,0.3499684476298355,0.6555067864921514,0.0
712,-0.2592159510009023,0.35008548386321015,0.6557844434993999,0.0
713,-0.2594955452181738,0.35020222259989753,0.6560613952992312,0.0
714,-0.2597744289850153,0.35031866448668175,0.656337643422526,0.0
715,-0.2600526038459885,0.35043481016977157,0.6566131893988125,0.0
716,-0.2603300713442716,0.3505506602947936,0.6568880347562509,0.0
717,-0.2606068330216432,0.3506662155067854,0.6571621810216167,0.0
718,-0.2608828904184662,0.3507814764501891,0.6574356297202855,0.0
719,-0.26115824507367186,0.3508964437688444,0.6577083823762166,0.0
720,-0.2614328985247445,0.35101111810598234,0.6579804405119383,0.0
721,-0.26170685230770574,0.3511255001042187,0.6582518056485316,0.0
722,-0.26198010795709925,0.35123959040554775,0.6585224793056159,0.0
723,-0.26225266700597566,0.35135338965133567,0.6587924630013337,0.0
724,-0.26252453098587775,0.3514668984823146,0.6590617582523356,0.0
725,-0.26279570142682546,0.3515801175385763,0.6593303665737661,0.0
726,-0.2630661798573015,0.3516930474595662,0.6595982894792488,0.0
727,-0.2633359678042368,0.3518056888840772,0.6598655284808723,0.0
728,-0.2636050667929963,0.35191804245024394,0.660132085089176,0.0
729,-0.2638734783473648,0.3520301087955367,0.660397960813136,0.0
730,-0.2641412039895333,0.35214188855675577,0.6606631571601516,0.0
731,-0.2644082452400848,0.35225338237002557,0.6609276756360315,0.0
732,-0.26467460361798123,0.35236459087078914,0.6611915177449803,0.0
733,-0.2649402806405496,0.35247551469380234,0.6614546849895855,0.0
734,-0.2652052778234689,0.35258615447312847,0.6617171788708037,0.0
735,-0.26546959668075715,0.35269651084213277,0.6619790008879485,0.0
736,-0.2657332387247582,0.35280658443347696,0.662240152538677,0.0
737,-0.26599620546612907,0.35291637587911395,0.6625006353189773,0.0
738,-0.26625849841382737,0.3530258858102826,0.6627604507231561,0.0
739,-0.2665201190750987,0.3531351148575025,0.6630196002438264,0.0
740,-0.26678106895546444,0.35324406365056865,0.663278085371895,0.0
741,-0.2670413495587095,0.3533527328185468,0.6635359075965507,0.0
742,-0.2673009623868704,0.35346112298976795,0.6637930684052521,0.0
743,-0.2675599089402233,0.3535692347918238,0.6640495692837163,0.0
744,-0.26781819071727236,0.3536770688515615,0.664305411715907,0.0
745,-0.26807580921473817,0.3537846257950793,0.6645605971840228,0.0
746,-0.2683327659275462,0.3538919062477212,0.6648151271684867,0.0
747,-0.2685890623488157,0.35399891083407276,0.6650690031479337,0.0
748,-0.26884469996984844,0.35410564017795604,0.6653222265992009,0.0
749,-0.2690996802801179,0.3542120949024254,0.6655747989973161,0.0
750,-0.26935400476725807,0.3543182756297627,0.6658267218154867,0.0
751,-0.2696076749170532,0.354424182981473,0.6660779965250901,0.0
752,-0.26986069221342673,0.35452981757827995,0.6663286245956621,0.0
753,-0.2701130581384314,0.3546351800401217,0.6665786074948873,0.0
754,-0.2703647741722385,0.3547402709861463,0.6668279466885886,0.0
755,-0.2706158417931278,0.35484509103470785,0.6670766436407172,0.0
756,-0.2708662624774779,0.35494964080336194,0.6673246998133426,0.0
757,-0.27111603769975584,0.3550539209088618,0.6675721166666432,0.0
758,-0.27136516893250756,0.355157931967154,0.6678188956588957,0.0
759,-0.27161365764634837,0.3552616745933747,0.6680650382464667,0.0
760,-0.27186150530995334,0.35536514940184544,0.6683105458838023,0.0
761,-0.2721087133900479,0.3554683570060694,0.6685554200234197,0.0
762,-0.27235528335139864,0.35557129801872744,0.6687996621158974,0.0
763,-0.27260121665680426,0.3556739730516745,0.6690432736098662,0.0
764,-0.27284651476708655,0.35577638271593554,0.6692862559520005,0.0
765,-0.27309117914108144,0.3558785276217021,0.6695286105870099,0.0
766,-0.2733352112356305,0.35598040837832856,0.6697703389576296,0.0
767,-0.27357861250557197,0.3560820255943286,0.6700114425046128,0.0
768,-0.27382138440373266,0.3561833798773716,0.6702519226667214,0.0
769,-0.27406352838091924,0.35628447183427914,0.6704917808807187,0.0
770,-0.2743050458859102,0.3563853020710217,0.6707310185813604,0.0
771,-0.2745459383654477,0.3564858711927151,0.670969637201387,0.0
772,-0.27478620726422953,0.3565861798036172,0.6712076381715155,0.0
773,-0.2750258540249011,0.3566862285071247,0.671445022920432,0.0
774,-0.2752648800880478,0.35678601790576997,0.6716817928747835,0.0
775,-0.27550328689218734,0.35688554860121746,0.6719179494591707,0.0
776,-0.2757410758737622,0.35698482119426106,0.6721534940961404,0.0
777,-0.275978248467132,0.3570838362848206,0.6723884282061782,0.0
778,-0.2762148061045664,0.35718259447193906,0.6726227532077008,0.0
779,-0.2764507502162379,0.35728109635377947,0.6728564705170496,0.0
780,-0.27668608223021446,0.35737934252762193,0.6730895815484829,0.0
781,-0.27692080357245286,0.35747733358986067,0.6733220877141696,0.0
782,-0.27715491566679157,0.3575750701360013,0.6735539904241817,0.0
783,-0.277388419934944,0.3576725527606579,0.6737852910864884,0.0
784,-0.2776213177964919,0.35776978205755017,0.6740159911069489,0.0
785,-0.2778536106688788,0.3578667586195009,0.6742460918893057,0.0
786,-0.27808529996740344,0.3579634830384331,0.674475594835179,0.0
787,-0.27831638710521356,0.35805995590536743,0.6747045013440597,0.0
788,-0.2785468734932995,0.3581561778104196,0.6749328128133033,0.0
789,-0.27877676054048806,0.3582521493427977,0.6751605306381242,0.0
790,-0.27900604965343667,0.3583478710907999,0.6753876562115891,0.0
791,-0.2792347422366271,0.35844334364181174,0.6756141909246118,0.0
792,-0.2794628396923598,0.35853856758230385,0.6758401361659466,0.0
793,-0.2796903434207482,0.35863354349782944,0.6760654933221832,0.0
794,-0.2799172548197129,0.3587282719730221,0.676290263777741,0.0
795,-0.2801435752849762,0.3588227535915933,0.6765144489148632,0.0
796,-0.28036930621005657,0.35891698893633034,0.676738050113612,0.0
797,-0.2805944489862634,0.3590109785890938,0.6769610687518626,0.0
798,-0.2808190050026916,0.3591047231308157,0.6771835062052984,0.0
799,-0.2810429756462165,0.35919822314149713,0.677405363847406,0.0
800,-0.2812663623014887,0.3592914792002061,0.6776266430494697,0.0
801,-0.2814891663509292,0.3593844918850757,0.6778473451805669,0.0
802,-0.28171138917472427,0.3594772617733018,0.678067471607563,0.0
803,-0.2819330321508209,0.3595697894411412,0.6782870236951067,0.0
804,-0.28215409665492186,0.3596620754639096,0.6785060028056256,0.0
805,-0.2823745840604812,0.3597541204159797,0.678724410299321,0.0
806,-0.28259449573869966,0.3598459248707793,0.6789422475341639,0.0
807,-0.28281383305852015,0.3599374894007895,0.6791595158658905,0.0
808,-0.28303259738662345,0.3600288145775428,0.6793762166479977,0.0
809,-0.28325079008742393,0.3601199009716214,0.679592351231739,0.0
810,-0.2834684125230653,0.36021074915265533,0.67980792096612,0.0
811,-0.28368546605341655,0.36030135968932087,0.6800229271978948,0.0
812,-0.28390195203606783,0.3603917331493388,0.6802373712715619,0.0
813,-0.2841178718263266,0.36048187009947286,0.6804512545293598,0.0
814,-0.28433322677721357,0.36057177110552796,0.6806645783112638,0.0
815,-0.28454801823945924,0.3606614367323488,0.6808773439549817,0.0
816,-0.28476224756149987,0.3607508675438182,0.6810895527959505,0.0
817,-0.28497591608947404,0.36084006410285563,0.6813012061673328,0.0
818,-0.28518902516721895,0.3609290269714158,0.681512305400013,0.0
819,-0.28540157613626715,0.36101775671048714,0.6817228518225938,0.0
820,-0.28561357033584306,0.3611062538800904,0.6819328467613937,0.0
821,-0.2858250091028595,0.3611945190392773,0.6821422915404423,0.0
822,-0.2860358937719148,0.36128255274612925,0.6823511874814782,0.0
823,-0.2862462256752892,0.36137035555775593,0.6825595359039455,0.0
824,-0.28645600614294203,0.36145792803029403,0.6827673381249907,0.0
825,-0.28666523650250886,0.3615452707189061,0.6829745954594598,0.0
826,-0.28687391807929813,0.3616323841777791,0.6831813092198953,0.0
827,-0.2870820521962886,0.36171926896012363,0.6833874807165332,0.0
828,-0.2872896401741264,0.36180592561817226,0.6835931112573007,0.0
829,-0.2874966833311225,0.3618923547031789,0.6837982021478131,0.0
830,-0.2877031829832498,0.3619785567654172,0.6840027546913711,0.0
831,-0.28790914044414084,0.3620645323541799,0.6842067701889587,0.0
832,-0.288114557025085,0.3621502820177777,0.6844102499392404,0.0
833,-0.28831943403502625,0.3622358063035381,0.6846131952385585,0.0
834,-0.2885237727805607,0.3623211057578044,0.6848156073809313,0.0
835,-0.28872757456593434,0.3624061809259351,0.6850174876580506,0.0
836,-0.28893084069304076,0.3624910323523025,0.6852188373592794,0.0
837,-0.289133572461419,0.3625756605802923,0.6854196577716495,0.0
838,-0.28933577116825154,0.3626600661523021,0.68561995017986,0.0
839,-0.289537438108362,0.36274424960974133,0.685819715866275,0.0
840,-0.2897385745742135,0.36282821149302974,0.6860189561109213,0.0
841,-0.28993918185590645,0.362911952341597,0.6862176721914872,0.0
842,-0.29013926124117695,0.36299547269388194,0.68641586538332,0.0
843,-0.29033881401539485,0.3630787730873316,0.6866135369594246,0.0
844,-0.29053784146156214,0.3631618540584007,0.6868106881904616,0.0
845,-0.2907363448603112,0.3632447161425508,0.687007320344746,0.0
846,-0.2909343254899032,0.36332735987425,0.6872034346882451,0.0
847,-0.29113178462622674,0.36340978578697186,0.6873990324845775,0.0
848,-0.2913287235427961,0.363491994413195,0.687594114995011,0.0
849,-0.29152514351075004,0.3635739862844026,0.687788683478462,0.0
850,-0.2917210457988504,0.3636557619310816,0.6879827391914936,0.0
851,-0.2919164316734807,0.3637373218827226,0.6881762833883142,0.0
852,-0.2921113023986451,0.3638186666678189,0.6883693173207767,0.0
853,-0.29230565923596696,0.3638997968138662,0.688561842238377,0.0
854,-0.29249950344468806,0.36398071284736216,0.6887538593882534,0.0
855,-0.29269283628166715,0.364061415293806,0.6889453700151846,0.0
856,-0.2928856590013792,0.36414190467769797,0.6891363753615897,0.0
857,-0.2930779728559144,0.36422218152253905,0.6893268766675265,0.0
858,-0.2932697790949772,0.36430224635083064,0.6895168751706909,0.0
859,-0.29346107896588547,0.364382099684074,0.6897063721064163,0.0
860,-0.2936518737135698,0.36446174204277015,0.6898953687076723,0.0
861,-0.29384216458057266,0.36454117394641955,0.6900838662050645,0.0
862,-0.29403195280704775,0.3646203959135217,0.6902718658268332,0.0
863,-0.2942212396307594,0.3646994084615749,0.6904593687988535,0.0
864,-0.29441002628708196,0.3647782121070762,0.690646376344634,0.0
865,-0.2945983140089992,0.36485680736552106,0.6908328896853169,0.0
866,-0.29478610402710403,0.364935194751403,0.6910189100396769,0.0
867,-0.29497339756959784,0.3650133747782138,0.6912044386241213,0.0
868,-0.2951601958622903,0.365091347958443,0.6913894766526895,0.0
869,-0.295346500128599,0.36516911480357805,0.6915740253370523,0.0
870,-0.29553231158954896,0.365246675824104,0.6917580858865122,0.0
871,-0.2957176314637728,0.36532403152950343,0.6919416595080028,0.0
872,-0.2959024609675102,0.3654011824282567,0.6921247474060885,0.0
873,-0.296086801314608,0.3654781290278414,0.6923073507829649,0.0
874,-0.2962706537165199,0.3655548718347326,0.692489470838458,0.0
875,-0.2964540193823066,0.3656314113544031,0.6926711087700247,0.0
876,-0.29663689951863575,0.3657077480913227,0.6928522657727526,0.0
877,-0.29681929532978196,0.3657838825489592,0.6930329430393601,0.0
878,-0.29700120801762697,0.3658598152297776,0.6932131417601965,0.0
879,-0.2971826387816598,0.36593554663524064,0.6933928631232419,0.0
880,-0.29736358881897673,0.3660110772658087,0.6935721083141076,0.0
