time_step,roll,roll_rate,pitch,pitch_rate,yaw,yaw_rate,depth,depth_rate
0,0.1,-7.583347813193845e-05,0.2,3.16945762319582e-05,0.3,7.510460804237439e-05,0.0,0.0
1,0.09999393332174945,-0.0005307077195323748,0.20000253556609857,0.00022180910974870595,0.3000060083686434,0.0005256068459790458,0.0,0.0
2,0.09997877675631436,-0.0009841890328105942,0.20000887024743497,0.0004113414694232994,0.30002101925742647,0.0009747295438654715,0.0,0.0
3,0.09995459615208369,-0.0014331124958349881,0.20001897652269682,0.0005989688770661743,0.3000449674508595,0.0014193381991144908,0.0,0.0
4,0.09992148261225788,-0.0018774887782379763,0.20003281631532976,0.0007846957918983721,0.30007776272137804,0.0018594433788879509,0.0,0.0
5,0.09987952670929451,-0.0023173549919792108,0.20005035177059952,0.0009685377246253278,0.30011931536706116,0.0022950818385674356,0.0,0.0
6,0.0998288182736235,-0.0027527481836690172,0.20007154534389673,0.0011505101585657228,0.30016953642088656,0.002726290268853317,0.0,0.0
7,0.09976944639760586,-0.0031837051135700624,0.200096359799081,0.0013306284572884221,0.30022833764681056,0.003153105076888847,0.0,0.0
8,0.09970149944126167,-0.003610262255868528,0.20012475820608544,0.0015089078647288442,0.3002956315340959,0.0035755623865270734,0.0,0.0
9,0.09962506503797036,-0.00403245580079379,0.20015670393853302,0.0016853635060778323,0.30037133129166693,0.00399369804042853,0.0,0.0
10,0.09954023010012866,-0.004450321656739553,0.20019216067137047,0.001860010388671059,0.30045535084250696,0.004407547602160417,0.0,0.0
11,0.09944708082476622,-0.004863895452370963,0.20023109237852002,0.0020328634028724925,0.3005476048180969,0.004817146358281929,0.0,0.0
12,0.09934570269911919,-0.005273212538717627,0.20027346333054885,0.0022039373229518996,0.30064800855289614,0.005222529320415659,0.0,0.0
13,0.09923618050616213,-0.005678307991252606,0.2003192380923558,0.0023732468079564126,0.30075647807886435,0.005623731227305158,0.0,0.0
14,0.0991185983300985,-0.006079216611957438,0.20036838152087566,0.002540806402576188,0.3008729301200243,0.00602078654685869,0.0,0.0
15,0.09899303956180994,-0.006475972931373271,0.20042085876280066,0.0027066305380041887,0.3009972820870655,0.006413729478179266,0.0,0.0
16,0.09885958690426463,-0.006868611210638154,0.200476635252319,0.0028707335327901136,0.30112945207198827,0.00680259395358101,0.0,0.0
17,0.09871832237788519,-0.00725716544351056,0.2005356767088706,0.0030331295936885066,0.30126935884278805,0.007187413640591922,0.0,0.0
18,0.09856932732587606,-0.007641669358379208,0.2005979491349194,0.0031938328165010744,0.30141692183817964,0.007568221943943098,0.0,0.0
19,0.09841268241951097,-0.008022156420259236,0.20066341881374297,0.003352857186913236,0.30157206116236085,0.007945052007544489,0.0,0.0
20,0.09824846766338054,-0.008398659832774817,0.20073205230723826,0.0035102165813249413,0.30173469757981597,0.00831793671644723,0.0,0.0
21,0.09807676240060037,-0.008771212540128246,0.2008038164537443,0.003665924767675778,0.3019047525101579,0.008686908698792637,0.0,0.0
22,0.09789764531797995,-0.009139847229055592,0.2008786783658811,0.0038199954062644037,0.3020821480230095,0.009052000327747918,0.0,0.0
23,0.09771119445115249,-0.009504596330768975,0.20095660542840513,0.0039724420505623265,0.3022668068329231,0.009413243723428662,0.0,0.0
24,0.09751748718966609,-0.00986549202288553,0.2010375652960806,0.004123278148022064,0.30245865229433905,0.009770670754808176,0.0,0.0
25,0.0973166002820365,-0.01022256623134311,0.20112152589156743,0.0042725170408797145,0.3026576083965813,0.01012431304161373,0.0,0.0
26,0.0971086098407616,-0.010575850632302828,0.20120845540332463,0.004420171966951954,0.30286359975889166,0.010474201956209774,0.0,0.0
27,0.0968935913472981,-0.010925376654038465,0.20129832228353,0.0045662560604275105,0.30307655162550123,0.01082036862546821,0.0,0.0
28,0.09667161965700041,-0.011271175478812841,0.20139109524601542,0.004710782352653126,0.30329638986073915,0.01116284393262575,0.0,0.0
29,0.09644276900402228,-0.011613278044741196,0.20148674326421773,0.004853763772914037,0.3035230409441783,0.01150165851912844,0.0,0.0
30,0.09620711300618116,-0.01195171504764165,0.2015852355691454,0.004995213149209017,0.30375643196581786,0.011836842786463436,0.0,0.0
31,0.0959647246697858,-0.012286516942872812,0.20168654164736038,0.0051351432090199845,0.3039964906213023,0.012168426897978065,0.0,0.0
32,0.09571567639442713,-0.012617713947158613,0.20179063123897548,0.005273566580076231,0.30424314520717677,0.012496440780686242,0.0,0.0
33,0.09546003997773285,-0.0129453360404004,0.2018974743356669,0.005410495791113283,0.3044963246161783,0.012820914127062332,0.0,0.0
34,0.09519788662008584,-0.013269412967476388,0.2020070411787019,0.005545943272626424,0.3047559583325629,0.013141876396822492,0.0,0.0
35,0.09492928692930674,-0.013589974240028524,0.20211930225698152,0.005679921357618919,0.3050219764274681,0.013459356818693568,0.0,0.0
36,0.09465431092530091,-0.01390704913823682,0.20223422830509807,0.005812442282344957,0.3052943095543106,0.01377338439216963,0.0,0.0
37,0.09437302804467002,-0.01422066671258124,0.20235179030140768,0.005943518187047344,0.30557288894421936,0.01408398788925617,0.0,0.0
38,0.09408550714528854,-0.01453085578559119,0.2024719594661173,0.006073161116689984,0.3058576464015029,0.014391195856202075,0.0,0.0
39,0.0937918165108454,-0.014837644953582686,0.2025947072593864,0.0062013830216851576,0.3061485142991516,0.014695036615219405,0.0,0.0
40,0.0934920238553509,-0.015141062588383266,0.20272000537944326,0.006328195758615647,0.3064454255743738,0.014995538266191053,0.0,0.0
41,0.09318619632760942,-0.015441136839044708,0.20284782576071553,0.006453611090951721,0.3067483137241666,0.01529272868836636,0.0,0.0
42,0.09287440051565789,-0.015737895633543622,0.202978140571975,0.0065776406897630185,0.3070571128009196,0.015586635542044732,0.0,0.0
43,0.09255670245117031,-0.01603136668046999,0.20311092221449678,0.006700296134425353,0.30737175740805284,0.01587728627024734,0.0,0.0
44,0.09223316761382883,-0.016321577470703695,0.20324614332023241,0.00682158891332247,0.307692182695688,0.01616470810037696,0.0,0.0
45,0.09190386093566116,-0.016608555279079146,0.20338377674999703,0.006941530424542777,0.30801832435635224,0.016448928045866028,0.0,0.0
46,0.09156884680534502,-0.016892327166038015,0.2035237955916703,0.007060131976571096,0.3083501186207154,0.016729972907812946,0.0,0.0
47,0.09122818907247952,-0.017172919979270215,0.20366617315841132,0.007177404788975439,0.3086875022533594,0.017007869276606757,0.0,0.0
48,0.0908819510518239,-0.0174503603553431,0.20381088298688707,0.007293359993088852,0.3090304125485804,0.01728264353354019,0.0,0.0
49,0.09053019552750377,-0.017724674721319052,0.20395789883551446,0.007408008632686359,0.3093787873262228,0.01755432185241119,0.0,0.0
50,0.09017298475718516,-0.017995889296361426,0.20410719468271596,0.0075213616646570185,0.30973256492754525,0.017822930201112978,0.0,0.0
51,0.08981038047621652,-0.018264030093328998,0.2042587447251885,0.007633429959671135,0.31009168421111843,0.01808849434321269,0.0,0.0
52,0.08944244390173894,-0.01852912292035892,0.2044125233761858,0.007744224302842646,0.3104560845487541,0.018351039839518715,0.0,0.0
53,0.08906923573676491,-0.018791193382438294,0.20456850526381368,0.007853755394386716,0.3108257058214657,0.018610592049636707,0.0,0.0
54,0.08869081617422563,-0.019050266882964403,0.20472666522933886,0.007962033850272566,0.3112004884154595,0.018867176133514435,0.0,0.0
55,0.08830724490098733,-0.019306368625293658,0.20488697832551028,0.008069070202871563,0.31158037321815707,0.019120817052975456,0.0,0.0
56,0.08791858110183672,-0.019559523614279373,0.20504941981489377,0.008174874901600598,0.31196530161424785,0.019371539573241718,0.0,0.0
57,0.08752488346343569,-0.01980975665779837,0.20521396516821924,0.00827945831356079,0.3123552154817723,0.019619368264445144,0.0,0.0
58,0.08712621017824576,-0.020057092368266527,0.2053805900627408,0.008382830724171526,0.31275005718823523,0.019864327503128273,0.0,0.0
59,0.08672261894842216,-0.02030155516414331,0.20554927038060927,0.008485002337799879,0.3131497695867487,0.020106441473733992,0.0,0.0
60,0.08631416698967805,-0.02054316927142536,0.20571998220725765,0.008585983278385433,0.31355429601220514,0.020345734170084468,0.0,0.0
61,0.08590091103511888,-0.020781958725129224,0.20589270182979855,0.008685783590060529,0.3139635802774793,0.02058222939684929,0.0,0.0
62,0.08548290733904734,-0.021017947370763224,0.2060674057354343,0.00878441323776597,0.31437756666966,0.02081595077100295,0.0,0.0
63,0.08506021168073881,-0.021251158865788627,0.20624407060987923,0.008881882107862216,0.3147961999463107,0.021046921723271654,0.0,0.0
64,0.08463287936818782,-0.0214816166810701,0.20642267333579417,0.008978200008736087,0.31521942533175895,0.021275165499569603,0.0,0.0
65,0.08420096524182558,-0.02170934410231556,0.20660319099123292,0.009073376671403002,0.3156471885134142,0.021500705162424725,0.0,0.0
66,0.08376452367820875,-0.021934364231505448,0.20678560084810088,0.009167421750104795,0.3160794356381146,0.021723563592394,0.0,0.0
67,0.08332360859367983,-0.022156699988311532,0.20696988037062553,0.009260344822903112,0.3165161133085012,0.021943763489468384,0.0,0.0
68,0.08287827344799925,-0.022376374111505278,0.20715600721383867,0.009352155392268448,0.31695716857942113,0.022161327374467438,0.0,0.0
69,0.0824285712479493,-0.02259340916035584,0.2073439592220705,0.00944286288566481,0.31740254895435754,0.02237627759042367,0.0,0.0
70,0.08197455455091038,-0.022807827516017783,0.20753371442745525,0.00953247665613008,0.31785220238188794,0.02258863630395673,0.0,0.0
71,0.0815162754684094,-0.02301965138290852,0.20772525104844847,0.009621005982852059,0.3183060772521694,0.02279842550663743,0.0,0.0
72,0.08105378566964092,-0.023228902790075626,0.20791854748835573,0.009708460071740255,0.3187641223934513,0.023005667016341744,0.0,0.0
73,0.08058713638496091,-0.023435603592554016,0.20811358233387273,0.00979484805599343,0.3192262870686147,0.023210382478594773,0.0,0.0
74,0.08011637840935355,-0.02363977547271307,0.20831033435363677,0.009880178996662919,0.3196925209717389,0.023412593367904785,0.0,0.0
75,0.07964156210587112,-0.02384143994159379,0.20850878249678934,0.009964461883211763,0.32016277422469414,0.023612320989087367,0.0,0.0
76,0.07916273740904727,-0.02404061834023604,0.20870890589154995,0.01004770563406969,0.32063699737376106,0.023809586478579774,0.0,0.0
77,0.07867995382828388,-0.02423733184099589,0.20891068384380096,0.010129919097183948,0.32111514138627617,0.02400441080574551,0.0,0.0
78,0.07819326045121167,-0.024431601448853205,0.2091140958356834,0.010211111050566029,0.32159715764730334,0.024196814774169212,0.0,0.0
79,0.07770270594702465,-0.0246234480027095,0.20931912152420376,0.01029129020283432,0.32208299795633094,0.02438681902294193,0.0,0.0
80,0.07720833856978886,-0.024812892176676073,0.2095257407398514,0.010370465193752683,0.322572614523995,0.024574444027936796,0.0,0.0
81,0.07671020616172534,-0.024999954481352595,0.20973393348522684,0.010448644594765015,0.3230659599688273,0.024759710103075216,0.0,0.0
82,0.07620835615646768,-0.02518465526509609,0.20994367993368082,0.010525836909525797,0.32356298731402916,0.024942637401583596,0.0,0.0
83,0.07570283558229422,-0.025367014715280488,0.21015496042796358,0.010602050574426671,0.3240636499842697,0.025123245917240692,0.0,0.0
84,0.07519369106533524,-0.025547052859546684,0.21036775547888495,0.010677293959119058,0.32456790180250955,0.025301555485615617,0.0,0.0
85,0.07468096883275518,-0.025724789567043303,0.2105820457639847,0.010751575367032851,0.32507569698684896,0.02547758578529659,0.0,0.0
86,0.07416471471591016,-0.0259002445496581,0.21079781212621332,0.010824903035891212,0.3255869901474002,0.025651356339110472,0.0,0.0
87,0.07364497415348092,-0.02607343736324016,0.21101503557262288,0.01089728513822149,0.3261017362831847,0.02582288651533318,0.0,0.0
88,0.07312179219458155,-0.02624438740881289,0.21123369727306837,0.010968729781862283,0.3266198907790536,0.025992195528890958,0.0,0.0
89,0.07259521350184382,-0.0264131139337779,0.21145377855891878,0.011039245010466695,0.3271414094026335,0.026159302442552684,0.0,0.0
90,0.07206528235447775,-0.026579636033109817,0.21167526092177852,0.011108838804001769,0.3276662483012942,0.02632422616811316,0.0,0.0
91,0.07153204265130822,-0.026743972650542097,0.2118981260122186,0.011177519079244167,0.32819436399914176,0.026486985467567517,0.0,0.0
92,0.07099553791378807,-0.0269061425797439,0.21212235563851778,0.011245293690272098,0.3287257133940338,0.026647598954276753,0.0,0.0
93,0.07045581128898762,-0.027066164465488065,0.21234793176541344,0.011312170428953511,0.3292602537546184,0.026806085094124493,0.0,0.0
94,0.06991290555256105,-0.027224056804810277,0.2125748365128623,0.011378157025430605,0.32979794271739626,0.02696246220666501,0.0,0.0
95,0.06936686311168958,-0.02737983794815946,0.21280305215481063,0.011443261148600661,0.3303387382838052,0.027116748466262563,0.0,0.0
96,0.06881772600800179,-0.027533526100539475,0.21303256111797422,0.01150749040659322,0.330882598817328,0.02726896190322212,0.0,0.0
97,0.0682655359204712,-0.02768513932264214,0.2132633459806277,0.011570852347243647,0.33142948304062225,0.027419120404911533,0.0,0.0
98,0.06771033416829121,-0.027834695531971692,0.21349538947140345,0.011633354458563085,0.3319793500326728,0.027567241716875187,0.0,0.0
99,0.06715216171372772,-0.027982212503960702,0.2137286744680996,0.011695004169204852,0.33253215922596646,0.027713343443939224,0.0,0.0
100,0.06659105916494944,-0.02812770787307752,0.21396318399649772,0.011755808848927265,0.3330878704036884,0.027857443051308366,0.0,0.0
101,0.0660270667788362,-0.02827119913392528,0.21419890122918941,0.011815775809052957,0.3336464436969409,0.027999557865654418,0.0,0.0
102,0.0654602244637653,-0.0284127036423326,0.2144358094844122,0.011874912302924685,0.33420783958198325,0.02813970507619648,0.0,0.0
103,0.06489057178237619,-0.02855223861643591,0.21467389222489439,0.011933225526357661,0.3347720188774935,0.028277901735772954,0.0,0.0
104,0.06431814795431355,-0.028689821137753584,0.21491313305670906,0.01199072261808843,0.3353389427418518,0.02841416476190538,0.0,0.0
105,0.063742991858949,-0.028825468152251864,0.215153515728137,0.012047410660220316,0.335908572670444,0.028548510937854172,0.0,0.0
106,0.06316514203808149,-0.028959196471402653,0.21539502412853842,0.012103296678665467,0.3364808704929875,0.028680956913666292,0.0,0.0
107,0.06258463669861675,-0.02909102277323323,0.21563764228723345,0.012158387643583518,0.3370557983708773,0.028811519207214944,0.0,0.0
108,0.0620015137152257,-0.02922096360336794,0.2158813543723916,0.012212690469816885,0.33763331879455244,0.028940214205231306,0.0,0.0
109,0.06141581063298219,-0.029349035376061938,0.21612614468992958,0.012266212017322737,0.3382133945808839,0.0290670581643284,0.0,0.0
110,0.060827564669980086,-0.02947525437522698,0.21637199768241808,0.012318959091601647,0.33879598887058215,0.02919206721201711,0.0,0.0
111,0.06023681271992997,-0.029599636755449413,0.21661889792799668,0.01237093844412296,0.3393810651256253,0.029315257347714434,0.0,0.0
112,0.05964359135473552,-0.029722198543000317,0.2168668301392976,0.012422156772746891,0.33996858712670724,0.02943664444374401,0.0,0.0
113,0.05904793682704978,-0.029842955636837924,0.21711577916237768,0.012472620722143382,0.3405585189707056,0.029556244246328977,0.0,0.0
114,0.05844988507281145,-0.02996192380960234,0.21736572997565867,0.01252233688420774,0.3411508250681698,0.029674072376577206,0.0,0.0
115,0.05784947171376139,-0.030079118708602644,0.217616667688876,0.012571311798473078,0.3417454701408283,0.029790144331459,0.0,0.0
116,0.057246732059939395,-0.03019455585679636,0.2178685775420355,0.012619551952519573,0.34234241921911573,0.029904475484777242,0.0,0.0
117,0.05664170111216154,-0.030308250653761453,0.2181214449043785,0.012667063782380594,0.34294163763971913,0.03001708108813013,0.0,0.0
118,0.05603441356447806,-0.0304202183766608,0.2183752552733548,0.012713853672945669,0.3435430910431435,0.030127976271866475,0.0,0.0
119,0.05542490380661212,-0.030530474181199266,0.21862999427360402,0.012759927958360374,0.3441467453712962,0.030237176046033664,0.0,0.0
120,0.054813205926379435,-0.0306390331025734,0.2188856476559445,0.012805292922423122,0.34475256686509026,0.030344695301318326,0.0,0.0
121,0.05419935371208901,-0.030745910056413805,0.21914220129637035,0.012849954798978883,0.34536052206206674,0.030450548809979737,0.0,0.0
122,0.05358338065492509,-0.030851119839720244,0.21939964119505634,0.012893919772309885,0.34597057779403534,0.030554751226776044,0.0,0.0
123,0.052965319951310506,-0.03095467713178953,0.21965795347537043,0.01293719397752327,0.34658270118473355,0.030657317089883337,0.0,0.0
124,0.05234520450525148,-0.031056596495136257,0.21991712438289424,0.012979783500935774,0.3471968596475042,0.030758260821807624,0.0,0.0
125,0.05172306693066415,-0.031156892376406408,0.22017714028445098,0.01302169438045541,0.347813020882991,0.030857596730289778,0.0,0.0
126,0.05109893955368285,-0.03125557910728391,0.22043798766714112,0.01306293260596022,0.3484311528768524,0.030955339009203463,0.0,0.0
127,0.05047285441495037,-0.03135267090539017,0.2206996531373855,0.013103504119674075,0.3490512238974931,0.031051501739446152,0.0,0.0
128,0.049844843271890225,-0.031448181875176666,0.22096212341997598,0.013143414816539566,0.34967320249381334,0.031146098889823233,0.0,0.0
129,0.04921493760096122,-0.0315421260088106,0.22122538535713362,0.01318267054458802,0.35029705749297585,0.031239144317925273,0.0,0.0
130,0.048583168599894325,-0.031634517187053734,0.221489425907574,0.013221277105306621,0.3509227579981903,0.03133065177099849,0.0,0.0
131,0.04794956718991206,-0.03172536918013435,0.2217542321455801,0.013259240254002706,0.351550273386515,0.031420634886808484,0.0,0.0
132,0.04731416401793048,-0.03181469564861251,0.22201979126008217,0.013296565700165214,0.35217957330667604,0.03150910719449729,0.0,0.0
133,0.046676989458743975,-0.03190251014423859,0.22228609055374512,0.013333259107823339,0.3528106276769031,0.03159608211543372,0.0,0.0
134,0.04603807361719291,-0.03198882611080512,0.22255311744206283,0.013369326095902396,0.3534434066827825,0.03168157296405722,0.0,0.0
135,0.045397446330314305,-0.03207365688499206,0.2228208594524595,0.013404772238576912,0.35407788077512725,0.03176559294871504,0.0,0.0
136,0.04475513716947574,-0.03215701569720544,0.22308930422339834,0.013439603065620979,0.3547140206678631,0.031848155172493016,0.0,0.0
137,0.04411117544249245,-0.032238915672409565,0.2233584395034969,0.013473824062755876,0.3553517973359319,0.03192927263403984,0.0,0.0
138,0.04346559019572792,-0.032319369830952675,0.22362825315064946,0.01350744067199499,0.3559911820132109,0.03200895822838495,0.0,0.0
139,0.042818410216177986,-0.03239839108938623,0.22389873313115644,0.013540458291986048,0.3566321461904485,0.03208722474775,0.0,0.0
140,0.04216966403353865,-0.032475992261277814,0.22416986751886028,0.013572882278350682,0.3572746616132161,0.032164084882354116,0.0,0.0
141,0.04151937992225766,-0.03255218605801766,0.2244416444942885,0.013604717944021348,0.35791870027987627,0.032239551221212796,0.0,0.0
142,0.04086758590357007,-0.032626985089618976,0.22471405234380312,0.01363597055957562,0.3585642344395664,0.032313636252930635,0.0,0.0
143,0.0402143097475178,-0.03270040186551198,0.22498707945875693,0.013666645353567874,0.3592112365901985,0.032386352366487854,0.0,0.0
144,0.03955957897495343,-0.03277244879533174,0.22526071433465633,0.013696747512858393,0.3598596794764743,0.032457711852020704,0.0,0.0
145,0.03890342085952826,-0.032843138189699916,0.2255349455703307,0.013726282182939885,0.3605095360879164,0.032527726901595805,0.0,0.0
146,0.03824586242966483,-0.03291248226100034,0.22580976186710836,0.013755254468261468,0.3611607796569144,0.03259640960997841,0.0,0.0
147,0.03758693047051395,-0.03298049312414861,0.22608515202799873,0.01378366943255012,0.36181338365678656,0.03266377197539471,0.0,0.0
148,0.036926651525896435,-0.033047182797355634,0.22636110495688133,0.013811532099129619,0.3624673217998566,0.032729825900288174,0.0,0.0
149,0.036265051900229606,-0.03311256320288522,0.22663760965770072,0.01383884745123698,0.36312256803554543,0.032794583192069966,0.0,0.0
150,0.035602157660438706,-0.03317664616780576,0.22691465523366794,0.01386562043233643,0.3637790965484783,0.03285805556386353,0.0,0.0
151,0.03493799463785334,-0.03323944342473601,0.2271922308864682,0.013891855946430921,0.364436881756606,0.03292025463524335,0.0,0.0
152,0.03427258843008906,-0.03330096661258508,0.22747032591547475,0.013917558858371213,0.3650958983093415,0.032981191932967904,0.0,0.0
153,0.03360596440291421,-0.03336122727728661,0.2277489297169689,0.013942733994162525,0.365756121085711,0.03304087889170697,0.0,0.0
154,0.032938147692102134,-0.03342023687252721,0.22802803178336606,0.013967386141268802,0.36641752519251897,0.03309932685476311,0.0,0.0
155,0.03226916320526888,-0.033478006760469185,0.22830762170244814,0.013991520048914581,0.3670800859625284,0.033156547074787664,0.0,0.0
156,0.03159903562369652,-0.033534548212467645,0.2285876891566016,0.01401514042838451,0.3677437789526547,0.033212550714490995,0.0,0.0
157,0.03092778940414215,-0.03358987240978195,0.22886822392206166,0.014038251953320514,0.36840857994217396,0.0332673488473473,0.0,0.0
158,0.030255448780632747,-0.03364399044428163,0.22914921586816242,0.014060859260016621,0.36907446493094515,0.03332095245829381,0.0,0.0
159,0.029582037766245954,-0.033696913319146725,0.22943065495659282,0.014082966947711495,0.3697414101376465,0.03337337244442454,0.0,0.0
160,0.028907580154876912,-0.03374865194956268,0.22971253124065844,0.014104579578878666,0.3704093919980254,0.03342461961567865,0.0,0.0
161,0.02823209952299124,-0.03379921716340977,0.22999483486454908,0.014125701679514484,0.37107838716316216,0.033474704695523334,0.0,0.0
162,0.027555619231364303,-0.03384861970194713,0.2302775560626121,0.014146337739423812,0.3717483724977474,0.033523638321631404,0.0,0.0
163,0.026878162426806827,-0.033896870220491405,0.2305606851586314,0.014166492212503483,0.3724193250783728,0.03357143104655355,0.0,0.0
164,0.02619975204387701,-0.033943979289090105,0.2308442125651121,0.014186169517023527,0.3730912221918354,0.03361809333838534,0.0,0.0
165,0.02552041080657922,-0.03398995739318965,0.2311281287825707,0.014205374035906194,0.3737640413334552,0.033663635581428944,0.0,0.0
166,0.024840161230049382,-0.03403481493429818,0.23141242439883106,0.014224110117002786,0.37443776020540576,0.033708068076849715,0.0,0.0
167,0.024159025622227142,-0.034078562230643164,0.23169709008832565,0.014242382073368308,0.375112356715058,0.0337514010433276,0.0,0.0
168,0.023477026085514965,-0.03412120951782386,0.2319821166114023,0.01426019418353397,0.37578780897333697,0.03379364461770342,0.0,0.0
169,0.022794184518424212,-0.034162766949458606,0.2322674948136365,0.014277550691777547,0.3764640952930915,0.03383480885562009,0.0,0.0
170,0.02211052261720833,-0.03420324459782708,0.23255321562514902,0.01429445580839161,0.3771411941874766,0.033874903732158804,0.0,0.0
171,0.021426061877483235,-0.034242652454507486,0.23283927005992883,0.01431091370994965,0.3778190843683486,0.03391393914247022,0.0,0.0
172,0.020740823595835026,-0.03428100043100874,0.23312564921516138,0.01432692853957011,0.3784977447446727,0.033951924902400676,0.0,0.0
173,0.020054828871415076,-0.03431829835939768,0.23341234427056215,0.01434250440717835,0.37917715442094313,0.0339888707491135,0.0,0.0
174,0.019368098607522657,-0.03435455599292135,0.23369934648771534,0.014357645389766535,0.37985729269561586,0.034024786341705415,0.0,0.0
175,0.01868065351317514,-0.034389783006624396,0.23398664720941784,0.014372355531651488,0.38053813905955314,0.03405968126181813,0.0,0.0
176,0.01799251410466592,-0.0344239889979616,0.2342742378590282,0.014386638844730518,0.3812196731944805,0.03409356501424509,0.0,0.0
177,0.01730370070711012,-0.03445718348740559,0.2345621099398209,0.014400499308735234,0.381901874971456,0.034126447027533466,0.0,0.0
178,0.016614233455978206,-0.0344893759190498,0.23485025503434548,0.01441394087148335,0.38258472444935104,0.03415833665458141,0.0,0.0
179,0.015924132298617572,-0.034520575661206636,0.23513866480379075,0.014426967449128532,0.3832682018733436,0.03418924317323062,0.0,0.0
180,0.015233416995762222,-0.034550792007000994,0.23542733098735405,0.014439582926408246,0.38395228767342265,0.03421917578685422,0.0,0.0
181,0.014542107123030626,-0.03458003417495906,0.23571624540161537,0.01445179115688969,0.38463696246290496,0.03424814362494004,0.0,0.0
182,0.013850222072411841,-0.03460831130959247,0.23600539993991634,0.014463595963213765,0.3853222070369629,0.03427615574366928,0.0,0.0
183,0.013157781053740002,-0.03463563248197795,0.2362947865717442,0.01447500113733713,0.3860080023711643,0.03430322112649064,0.0,0.0
184,0.012464803096157261,-0.03466200669033227,0.23658439734212044,0.014486010440772362,0.3866943296200233,0.034329348684689905,0.0,0.0
185,0.01177130704956527,-0.0346874428605828,0.23687422437099442,0.014496627604826206,0.38738117011556294,0.03435454725795509,0.0,0.0
186,0.011077311586065309,-0.03471194984693344,0.2371642598526415,0.01450685633083597,0.38806850536588866,0.03437882561493706,0.0,0.0
187,0.010382835201387126,-0.034735536432426224,0.23745449605506605,0.01451670029040404,0.38875631705377317,0.03440219245380583,0.0,0.0
188,0.0096878962163066,-0.03475821132949841,0.23774492531940908,0.014526163125630554,0.3894445870352524,0.034424656402802394,0.0,0.0
189,0.008992512778052303,-0.03477998318053521,0.23803554005936053,0.014535248449344246,0.3901332973382325,0.03444622602078626,0.0,0.0
190,0.00829670286170104,-0.03480086055841817,0.23832633276057608,0.014543959845331467,0.39082243016110724,0.03446690979777865,0.0,0.0
191,0.007600484271562489,-0.03482085196706921,0.23861729598009862,0.014552300868563399,0.3915119678713872,0.03448671615550144,0.0,0.0
192,0.006903874642552979,-0.03483996584199042,0.23890842234578422,0.01456027504542149,0.3922018930043387,0.034505653447911816,0.0,0.0
193,0.006206891441558527,-0.03485821055079956,0.2391997045557325,0.014567885873921096,0.39289218826163413,0.03452372996173277,0.0,0.0
194,0.005509551968787205,-0.03487559439376133,0.23949113537772163,0.014575136823933374,0.39358283651001225,0.03454095391697937,0.0,0.0
195,0.004811873359110924,-0.034892125604314525,0.23978270764864754,0.014582031337405417,0.39427382077994944,0.03455733346748086,0.0,0.0
196,0.004113872583396713,-0.03490781234959494,0.24007441427396772,0.014588572828578663,0.39496512426434116,0.034572876701398775,0.0,0.0
197,0.003415566449827588,-0.03492266273095422,0.24036624822714925,0.014594764684205572,0.39565673031719373,0.03458759164174078,0.0,0.0
198,0.0027169716052130766,-0.034936684784474606,0.24065820254912115,0.0146006102637646,0.3963486224523262,0.03460148624687061,0.0,0.0
199,0.002018104536289495,-0.034949886481479606,0.24095027034773103,0.014606112899673484,0.3970407843420829,0.03461456841101392,0.0,0.0
200,0.0013189815710100495,-0.03496227572904064,0.24124244479720605,0.014611275897500832,0.3977331998160553,0.034626845964760185,0.0,0.0
201,0.0006196188798248428,-0.03497386037047974,0.24153471913761798,0.014616102536176059,0.3984258528598146,0.03463832667556058,0.0,0.0
202,-7.996752304912866e-05,-0.03498464818586819,0.24182708667435251,0.014620596068197655,0.3991187276136535,0.034649018248222,0.0,0.0
203,-0.000779761778367916,-0.03499464689252134,0.24211954077758274,0.014624759719839826,0.39981180837133884,0.03465892832539719,0.0,0.0
204,-0.0014797481806104137,-0.03500386414548945,0.2424120748817467,0.014628596691357488,0.40050507957887277,0.0346680644880709,0.0,0.0
205,-0.0021799111767379343,-0.035012307538044685,0.24270468248502908,0.01463211015718966,0.4011985258332646,0.034676434256042374,0.0,0.0
206,-0.002880235364963484,-0.03501998460216427,0.24299735714884677,0.014635303266161252,0.4018921318813117,0.034684045088403885,0.0,0.0
207,-0.0035807054935306643,-0.03502690280900983,0.24329009249733877,0.01463817914168324,0.4025858826183902,0.03469090438401558,0.0,0.0
208,-0.004281306459502121,-0.03503306956940297,0.2435828822168598,0.014640740881951298,0.40327976308725505,0.03469701948197656,0.0,0.0
209,-0.0049820233075574686,-0.035038492234297065,0.243875720055478,0.014642991560142838,0.40397375847684946,0.03470239766209223,0.0,0.0
210,-0.005682841228800613,-0.03504317809524537,0.24416859982247646,0.014644934224612506,0.4046678541211237,0.034707046145338,0.0,0.0
211,-0.0063837455595764005,-0.03504713438486542,0.24446151538785882,0.014646571899086134,0.4053620354978631,0.034710972094319274,0.0,0.0
212,-0.007084721780296513,-0.035050368277299765,0.24475446068185847,0.014647907582853165,0.40605628822752515,0.03471418261372786,0.0,0.0
213,-0.007785755514274548,-0.03505288688867308,0.2450474296944519,0.014648944250957557,0.40675059807208586,0.03471668475079478,0.0,0.0
214,-0.008486832526570206,-0.03505469727754566,0.24534041647487553,0.014649684854387189,0.407444950933895,0.03471848549573944,0.0,0.0
215,-0.009187938722842497,-0.03505580644536338,0.24563341513114662,0.014650132320261768,0.4081393328545403,0.03471959178221538,0.0,0.0
216,-0.009889060148211936,-0.03505622133690401,0.24592641982958763,0.014650289552019254,0.4088337300137206,0.034720010487752355,0.0,0.0
217,-0.010590182986131602,-0.03505594884072014,0.24621942479435455,0.014650159429600818,0.40952812872812777,0.034719748434195105,0.0,0.0
218,-0.011291293557267044,-0.03505499578957851,0.24651242430696874,0.014649744809634347,0.41022251545033744,0.03471881238813851,0.0,0.0
219,-0.011992378318384922,-0.03505336896089592,0.24680541270585252,0.014649048525616487,0.4109168767677081,0.03471720906135938,0.0,0.0
220,-0.012693423861250344,-0.035051075077171694,0.2470983843858683,0.014648073388093274,0.4116111994012892,0.034714945111244885,0.0,0.0
221,-0.013394416911532807,-0.03504812080641675,0.24739133379786146,0.014646822184839314,0.4123054702047377,0.034712027141217495,0.0,0.0
222,-0.014095344327720697,-0.03504451276257926,0.24768425544820658,0.014645297681035578,0.4129996761632427,0.03470846170115669,0.0,0.0
223,-0.014796193100044258,-0.035040257505966975,0.24797714389835743,0.014643502619445777,0.413693804392459,0.03470425528781725,0.0,0.0
224,-0.015496950349406981,-0.035035361543666224,0.24826999376440032,0.014641439720591351,0.4143878421374489,0.03469941434524432,0.0,0.0
225,-0.01619760332632534,-0.03502983132995758,0.24856279971661102,0.01463911168292509,0.4150817767716317,0.034693945265185114,0.0,0.0
226,-0.016898139409876802,-0.035023673266728284,0.24885555647901514,0.014636521183003367,0.41577559579574225,0.0346878543874975,0.0,0.0
227,-0.01759854610665606,-0.035016893703881405,0.24914825882895184,0.014633670875657034,0.4164692868367969,0.034681148000555245,0.0,0.0
228,-0.018298811049739412,-0.035009498939741764,0.24944090159664106,0.01463056339416096,0.4171628376470681,0.034673832341650127,0.0,0.0
229,-0.018998921997657237,-0.03500149522145869,0.2497334796647541,0.014627201350402236,0.4178562361030665,0.03466591359739086,0.0,0.0
230,-0.019698866833374473,-0.03499288874540558,0.25002598796798753,0.014623587335047056,0.4185494702045316,0.03465739790409888,0.0,0.0
231,-0.02039863356327908,-0.03498368565757628,0.25031842149264033,0.014619723917706284,0.4192425280734296,0.03464829134820103,0.0,0.0
232,-0.021098210316178374,-0.034973892053978425,0.25061077527619463,0.01461561364709971,0.4199353979529596,0.034638599966619096,0.0,0.0
233,-0.021797585342303225,-0.034963513981023604,0.25090304440689937,0.014611259051219027,0.42062806820656723,0.03462832974715635,0.0,0.0
234,-0.02249674701232,-0.034952557435914494,0.2511952240233573,0.014606662637489512,0.4213205273169663,0.03461748662888097,0.0,0.0
235,-0.023195683816350236,-0.034941028367028906,0.2514873093141155,0.014601826892930438,0.42201276388516773,0.03460607650250651,0.0,0.0
236,-0.023894384362997956,-0.034928932674300854,0.2517792955172586,0.014596754284314223,0.42270476662951634,0.03459410521076931,0.0,0.0
237,-0.024592837378384583,-0.03491627620959859,0.2520711779200055,0.014591447258324328,0.4233965243847351,0.03458157854880299,0.0,0.0
238,-0.025291031705191376,-0.03490306477709968,0.2523629518583093,0.014585908241711907,0.4240880261009765,0.03456850226450994,0.0,0.0
239,-0.02598895630170934,-0.0348893041336631,0.25265461271646006,0.014580139641451235,0.42477926084288214,0.03455488205892994,0.0,0.0
240,-0.026686600240896557,-0.03487499998919843,0.2529461559266908,0.014574143844893896,0.4254702177886487,0.03454072358660582,0.0,0.0
241,-0.027383952709442865,-0.03486015800703214,0.2532375769687866,0.014567923219921773,0.4261608862291017,0.0345260324559463,0.0,0.0
242,-0.02808100300684183,-0.03484478380427097,0.25352887136969693,0.01456148011509883,0.4268512555667766,0.03451081422958591,0.0,0.0
243,-0.028777740544469965,-0.034828882952162486,0.25382003470315034,0.014554816859821693,0.4275413153150068,0.03449507442474213,0.0,0.0
244,-0.029474154844673126,-0.03481246097645274,0.2541110625892731,0.014547935764469055,0.4282310550970187,0.034478818513569716,0.0,0.0
245,-0.03017023553986004,-0.03479552335774119,0.2544019506942099,0.014540839120549905,0.4289204646450343,0.034462051923512184,0.0,0.0
246,-0.030865972371602886,-0.03477807553183278,0.2546926947297484,0.014533529200850583,0.4296095337993801,0.034444780037650585,0.0,0.0
247,-0.03156135518974492,-0.03476012289008724,0.2549832904529459,0.014526008259580692,0.43029825250760356,0.03442700819504951,0.0,0.0
248,-0.03225637395151503,-0.034741670779765685,0.2552737336657591,0.014518278532517854,0.43098661082359613,0.03440874169110039,0.0,0.0
249,-0.03295101872064921,-0.034722724504374455,0.2555640202146775,0.014510342237151324,0.4316745989067232,0.03438998577786205,0.0,0.0
250,-0.03364527966651888,-0.03470328932400626,0.25585414599035844,0.01450220157282449,0.43236220702096084,0.03437074566439865,0.0,0.0
251,-0.034339147063266004,-0.03468337045567861,0.25614410692726586,0.014493858720876239,0.4330494255340392,0.03435102651711492,0.0,0.0
252,-0.035032611288944936,-0.03466297307366966,0.2564338990033117,0.014485315844781216,0.4337362449165927,0.03433083346008879,0.0,0.0
253,-0.03572566282467099,-0.03464210230985135,0.2567235182394999,0.014476575090288985,0.4344226557413169,0.034310171575401366,0.0,0.0
254,-0.03641829225377561,-0.03462076325401992,0.25701296069957325,0.014467638585562093,0.4351086486821316,0.03428904590346435,0.0,0.0
255,-0.037110490260968146,-0.03459896095422391,0.25730222248966306,0.014458508441313056,0.4357942145133511,0.03426746144334487,0.0,0.0
256,-0.03780224763150416,-0.034576700417089476,0.25759129975794154,0.014449186750940252,0.43647934410885997,0.03424542315308775,0.0,0.0
257,-0.038493555250360204,-0.03455398660814321,0.25788018869427687,0.014439675590662773,0.43716402844129637,0.03422293595003527,0.0,0.0
258,-0.039184404101415035,-0.03453082445213244,0.25816888552989087,0.014429977019654193,0.43784825858124077,0.034200004711144386,0.0,0.0
259,-0.039874785266637215,-0.03450721883334294,0.2584573865370196,0.014420093080175304,0.43853202569641164,0.03417663427330147,0.0,0.0
260,-0.04056468992527904,-0.03448317459591426,0.2587456880285762,0.014410025797705799,0.4392153210508671,0.03415282943363459,0.0,0.0
261,-0.04125410935307675,-0.03445869654415245,0.25903378635781676,0.014399777181074928,0.4398981360042127,0.03412859494982332,0.0,0.0
262,-0.041943034921456956,-0.03443378944284042,0.2593216779180084,0.014389349222591129,0.4405804620108158,0.03410393554040613,0.0,0.0
263,-0.04263145809674926,-0.03440845801754586,0.2596093591421004,0.014378743898170633,0.4412622906190256,0.03407885588508534,0.0,0.0
264,-0.04331937043940502,-0.034382706954926644,0.25989682650239754,0.014367963167465076,0.44194361347039957,0.03405336062502971,0.0,0.0
265,-0.044006763603222185,-0.03435654090303399,0.2601840765102359,0.014357008973988096,0.4426244222989356,0.03402745436317464,0.0,0.0
266,-0.04469362933457616,-0.03432996447161315,0.2604711057156616,0.014345883245240942,0.4433047089303106,0.03400114166452001,0.0,0.0
267,-0.04537995947165669,-0.0343029822324017,0.26075791070711174,0.014334587892837106,0.4439844652811244,0.03397442705642567,0.0,0.0
268,-0.04606574594371068,-0.03427559871942561,0.2610444881110977,0.014323124812625961,0.4446636833581502,0.0339473150289047,0.0,0.0
269,-0.04675098077029086,-0.0342478184292929,0.2613308345918914,0.014311495884815447,0.44534235525759047,0.03391981003491419,0.0,0.0
270,-0.0474356560605104,-0.03421964582148501,0.26161694685121334,0.01429970297409379,0.4460204731643385,0.03389191649064396,0.0,0.0
271,-0.04811976401230323,-0.03419108531864593,0.2619028216279237,0.01428774792975026,0.4466980293512463,0.03386363877580282,0.0,0.0
272,-0.04880329691169018,-0.034162141306868996,0.26218845569771554,0.014275632585794994,0.4473750161783974,0.033834981233902724,0.0,0.0
273,-0.04948624713205081,-0.03413281813598148,0.26247384587281014,0.014263358761077876,0.44805142609238613,0.03380594817254061,0.0,0.0
274,-0.05016860713340093,-0.03410312011982696,0.26275898900165523,0.014250928259406487,0.44872725162560184,0.033776543863678093,0.0,0.0
275,-0.05085036946167573,-0.034073051536545454,0.2630438819686253,0.014238342869663126,0.44940248539551914,0.03374677254391891,0.0,0.0
276,-0.05153152674801846,-0.03404261662885135,0.2633285216937242,0.014225604365920923,0.45007712010399337,0.03371663841478425,0.0,0.0
277,-0.05221207170807472,-0.0340118196043092,0.26361290513229,0.014212714507559045,0.4507511485365618,0.03368614564298586,0.0,0.0
278,-0.05289199714129219,-0.03398066463560731,0.2638970292747025,0.014199675039376984,0.45142456356175004,0.033655298360697083,0.0,0.0
279,-0.053571295930225804,-0.03394915586082923,0.26418089114609256,0.014186487691707977,0.4520973581303841,0.03362410066582172,0.0,0.0
280,-0.054249961039848374,-0.033917297383723066,0.26446448780605397,0.01417315418053151,0.45276952527490755,0.033592556622260815,0.0,0.0
281,-0.05492798551686655,-0.03388509327396875,0.2647478163483576,0.014159676207584971,0.45344105810870416,0.03356067026017733,0.0,0.0
282,-0.055605362489042104,-0.033852547567443166,0.2650308739006675,0.014146055460474405,0.4541119498254258,0.03352844557625878,0.0,0.0
283,-0.056282085164518526,-0.03381966426648323,0.2653136576242594,0.014132293612784418,0.45478219369832545,0.03349588653397779,0.0,0.0
284,-0.05695814683115281,-0.033786447340146894,0.26559616471374153,0.014118392324187221,0.45545178307959566,0.03346299706385059,0.0,0.0
285,-0.057633540855852476,-0.03375290072447212,0.26587839239677724,0.014104353240550815,0.4561207113997118,0.03342978106369358,0.0,0.0
286,-0.05830826068391777,-0.03371902832273383,0.26616033793381016,0.014090177994046339,0.45678897216678066,0.03339624239887774,0.0,0.0
287,-0.05898229983838891,-0.033684834005698855,0.2664419986177913,0.014075868203254568,0.4574565589658942,0.033362384902581234,0.0,0.0
288,-0.059655651919398485,-0.03365032161187886,0.26672337177390804,0.014061425473271594,0.4581234654584881,0.03332821237603984,0.0,0.0
289,-0.06032831060352887,-0.03361549494778132,0.267004454759316,0.014046851395813674,0.4587896853817052,0.033293728588795604,0.0,0.0
290,-0.061000269643174614,-0.03358035778815855,0.26728524496287204,0.014032147549321257,0.45945521254776467,0.03325893727894343,0.0,0.0
291,-0.06167152286590983,-0.03354491387625475,0.26756573980487,0.014017315499062202,0.4601200408433348,0.033223842153375795,0.0,0.0
292,-0.06234206417386048,-0.033509166924051134,0.2678459367367781,0.014002356797234196,0.46078416422891194,0.03318844688802554,0.0,0.0
293,-0.06301188754308154,-0.03347312061250917,0.2681258332409788,0.013987272983066363,0.4614475767382034,0.03315275512810677,0.0,0.0
294,-0.06368098702293903,-0.03343677859181189,0.2684054268305101,0.013972065582920086,0.4621102724775157,0.03311677048835386,0.0,0.0
295,-0.06434935673549687,-0.03340014448160334,0.26868471504880964,0.013956736110389042,0.462772245625147,0.03308049655325863,0.0,0.0
296,-0.06501699087490842,-0.033363221871226124,0.2689636954694599,0.013941286066398462,0.46343349043078513,0.033043936877305606,0.0,0.0
297,-0.06568388370681287,-0.03332601431995715,0.26924236569593607,0.013925716939303603,0.4640940012149093,0.033007094985205515,0.0,0.0
298,-0.06635002956773624,-0.03328852535724151,0.2695207233613555,0.01391003020498747,0.46475377236819715,0.03296997437212692,0.0,0.0
299,-0.06701542286449703,-0.03325075848292449,0.2697987661282294,0.013894227326957765,0.46541279835093624,0.03293257850392604,0.0,0.0
300,-0.06768005807361664,-0.033212717167481885,0.27007649168821607,0.013878309756443085,0.46607107369244,0.03289491081737479,0.0,0.0
301,-0.06834392974073414,-0.03317440485224839,0.27035389776187646,0.013862278932488372,0.4667285929904683,0.032856974720387094,0.0,0.0
302,-0.06900703248002579,-0.0331358249496443,0.27063098209843134,0.01384613628204961,0.4673853509106527,0.032818773592243305,0.0,0.0
303,-0.069669360973629,-0.03309698084340041,0.27090774247552046,0.013829883220087802,0.46804134218592575,0.03278031078381303,0.0,0.0
304,-0.07033090997107075,-0.03305787588878116,0.2711841766989637,0.013813521149662202,0.46869656161595524,0.032741589617776096,0.0,0.0
305,-0.0709916742887005,-0.03301851341280605,0.27146028260252386,0.013797051462022824,0.4693510040665824,0.03270261338884186,0.0,0.0
306,-0.07165164880912747,-0.032978896714469345,0.27173605804767137,0.013780475536702235,0.47000466446926487,0.032663385363966804,0.0,0.0
307,-0.07231082848066236,-0.03293902906495802,0.2720115009233509,0.01376379474160663,0.47065753782052355,0.03262390878257041,0.0,0.0
308,-0.07296920831676332,-0.032898913707868085,0.2722866091457498,0.0137470104331062,0.4713096191813943,0.03258418685674938,0.0,0.0
309,-0.0736267833954863,-0.03285855385941915,0.2725613806580681,0.013730123956124801,0.47196090367688337,0.03254422277149016,0.0,0.0
310,-0.07428354885893966,-0.032817952708667386,0.27283581343029073,0.013713136644228918,0.47261138649542733,0.032504019684879856,0.0,0.0
311,-0.07493949991274301,-0.03277711341771676,0.27310990545896097,0.013696049819715943,0.4732610628883574,0.032463580728315455,0.0,0.0
312,-0.07559463182549028,-0.0327360391219287,0.2733836547669562,0.01367886479370177,0.47390992816936744,0.03242290900671146,0.0,0.0
313,-0.07624893992821692,-0.032694732930130074,0.27365705940326496,0.013661582866207705,0.4745579777139866,0.03238200759870589,0.0,0.0
314,-0.0769024196138713,-0.03265319792481959,0.27393011744276596,0.013644205326246694,0.47520520695905566,0.03234087955686468,0.0,0.0
315,-0.07755506633679018,-0.03261143716237256,0.2742028269860089,0.013626733451908901,0.4758516114022077,0.03229952790788452,0.0,0.0
316,-0.07820687561217833,-0.03256945367324409,0.27447518615899674,0.0136091685104466,0.47649718660135276,0.03225795565279403,0.0,0.0
317,-0.07885784301559205,-0.032527250462170705,0.27474719311296975,0.013591511758358422,0.4771419281741664,0.03221616576715351,0.0,0.0
318,-0.07950796418242688,-0.03248483050837037,0.27501884602419135,0.013573764441472944,0.4777858317975823,0.03217416120125301,0.0,0.0
319,-0.08015723480740919,-0.032442196765741,0.27529014309373556,0.013555927795031626,0.47842889320728904,0.03213194488030892,0.0,0.0
320,-0.08080565064409174,-0.032399352163057386,0.275561082547276,0.013538003043771113,0.47907110819723026,0.03208951970465905,0.0,0.0
321,-0.08145320750435321,-0.032356299604166645,0.27583166263487674,0.013519991402004893,0.47971247261910926,0.03204688854995616,0.0,0.0
322,-0.08209990125790152,-0.032313041968182105,0.2761018816307844,0.013501894073704317,0.4803529823818971,0.032004054267359985,0.0,0.0
323,-0.08274572783178118,-0.0322695821096757,0.2763717378332225,0.013483712252579005,0.4809926334513448,0.03196101968372781,0.0,0.0
324,-0.08339068320988426,-0.03222592285886888,0.2766412295641866,0.013465447122156611,0.481631421849499,0.03191778760180352,0.0,0.0
325,-0.08403476343246538,-0.03218206702182207,0.27691035516924173,0.01344709985586199,0.4822693436542216,0.03187436080040521,0.0,0.0
326,-0.08467796459566031,-0.032138017380622545,0.2771791130173211,0.013428671617095728,0.4829063949987132,0.031830742034611344,0.0,0.0
327,-0.08532028285100837,-0.03209377669357104,0.27744750150052633,0.013410163559312094,0.4835425720710402,0.031786934035945444,0.0,0.0
328,-0.08596171440497861,-0.03204934769536671,0.27771551903392916,0.013391576826096355,0.48417787111366534,0.03174293951255938,0.0,0.0
329,-0.08660225551849957,-0.032004733097290794,0.27798316405537515,0.013372912551241517,0.48481228842298224,0.031698761149415215,0.0,0.0
330,-0.08724190250649273,-0.03195993558738883,0.27825043502528835,0.013354171858824461,0.48544582034885336,0.03165440160846565,0.0,0.0
331,-0.08788065173740967,-0.03191495783065138,0.27851733042647786,0.013335355863281495,0.4860784632941516,0.03160986352883307,0.0,0.0
332,-0.08851849963277268,-0.031869802469193506,0.27878384876394574,0.013316465669483317,0.48671021371430556,0.0315651495269872,0.0,0.0
333,-0.08915544266671914,-0.03182447212243268,0.27904998856469637,0.013297502372809402,0.4873410681168481,0.031520262196921396,0.0,0.0
334,-0.08979147736554922,-0.03177896938726546,0.2793157483775474,0.013278467059221808,0.4879710230609686,0.03147520411032756,0.0,0.0
335,-0.09042660030727732,-0.03173329683824272,0.2795811267729423,0.01325936080533842,0.48860007515706894,0.031429977816769705,0.0,0.0
336,-0.09106080812118685,-0.03168745702774356,0.27984612234276385,0.013240184678505622,0.48922822106632213,0.031384585843856165,0.0,0.0
337,-0.09169409748738847,-0.03164145248614785,0.2801107337001499,0.013220939736870404,0.4898554575002354,0.03133903069741051,0.0,0.0
338,-0.09232646513638193,-0.03159528572200746,0.2803749594793096,0.013201627029451926,0.490481781220216,0.03129331486164109,0.0,0.0
339,-0.09295790784862114,-0.031548959222216136,0.280638798335342,0.013182247596212506,0.4911071890371406,0.03124744079930929,0.0,0.0
340,-0.09358842245408269,-0.03150247545217809,0.28090224894405524,0.013162802468128088,0.491731677810928,0.031201410951896512,0.0,0.0
341,-0.0942180058318378,-0.03145583685597528,0.2811653100017878,0.01314329266725814,0.4923552444501152,0.031155227739769798,0.0,0.0
342,-0.09484665490962745,-0.03140904585653339,0.28142798022523074,0.013123719206815031,0.49297788591143676,0.031108893562346248,0.0,0.0
343,-0.09547436666344093,-0.03136210485578655,0.2816902583512515,0.013104083091232859,0.4935995991994075,0.031062410798256116,0.0,0.0
344,-0.09610113811709772,-0.03131501623484073,0.28195214313671896,0.013084385316235759,0.49422038136590823,0.03101578180550467,0.0,0.0
345,-0.09672696634183246,-0.03126778235413596,0.28221363335832994,0.013064626868905678,0.4948402295097751,0.030969008921632783,0.0,0.0
346,-0.09735184845588327,-0.03122040555360719,0.28247472781243704,0.013044808727749624,0.4954591407763916,0.030922094463876313,0.0,0.0
347,-0.09797578162408324,-0.03117288815284402,0.28273542531487783,0.013024931862766409,0.49607711235728436,0.030875040729324222,0.0,0.0
348,-0.09859876305745516,-0.031125232451249103,0.2829957247008053,0.013004997235512862,0.4966941414897215,0.0308278499950755,0.0,0.0
349,-0.09922079001280927,-0.031077440728195377,0.2832556248245197,0.01298500579916954,0.49731022545631465,0.030780524518394844,0.0,0.0
350,-0.0998418597923443,-0.03102951524318208,0.2835151245593017,0.012964958498605938,0.4979253615846235,0.03073306653686719,0.0,0.0
351,-0.10046196974325153,-0.030981458235989547,0.28377422279724684,0.01294485627044518,0.4985395472467642,0.03068547826855099,0.0,0.0
352,-0.10108111725732188,-0.030933271926832824,0.28403291844910106,0.012924700043128226,0.49915277985901974,0.03063776191213035,0.0,0.0
353,-0.10169929977055628,-0.03088495851651409,0.28429121044409794,0.012904490736977584,0.4997650568814545,0.030589919647065988,0.0,0.0
354,-0.10231651476277875,-0.03083652018657391,0.2845490977297968,0.012884229264260525,0.5003763758175311,0.03054195363374501,0.0,0.0
355,-0.10293275975725283,-0.030787959099441323,0.2848065792719223,0.012863916529251812,0.5009867342137304,0.030493866013629557,0.0,0.0
356,-0.10354803232030071,-0.03073927739858278,0.28506365405420525,0.012843553428295948,0.5015961296591743,0.03044565890940428,0.0,0.0
357,-0.10416233006092557,-0.03069047720864991,0.2853203210782244,0.01282314084986895,0.5022045597852521,0.030397334425122713,0.0,0.0
358,-0.10477565063043663,-0.030641560635626175,0.28557657936325,0.012802679674639637,0.502812022265249,0.03034889464635247,0.0,0.0
359,-0.10538799172207738,-0.030592529766972385,0.285832427946088,0.012782170775530458,0.5034185148139778,0.030300341640319372,0.0,0.0
360,-0.10599935107065647,-0.030543386671771092,0.28608786588092594,0.012761615017777842,0.5040240351874137,0.030251677456050445,0.0,0.0
361,-0.10660972645218161,-0.03049413340086988,0.2863428922391797,0.012741013258992094,0.5046285811823314,0.030202904124515807,0.0,0.0
362,-0.10721911568349632,-0.030444771987023538,0.28659750610934154,0.01272036634921682,0.5052321506359461,0.030154023658769475,0.0,0.0
363,-0.10782751662191944,-0.03039530444503516,0.28685170659682946,0.012699675130987905,0.5058347414255554,0.03010503805408909,0.0,0.0
364,-0.10843492716488756,-0.03034573277189613,0.28710549282383757,0.012678940439392031,0.5064363514681864,0.030055949288114562,0.0,0.0
365,-0.1090413452496001,-0.030296058946925074,0.2873588639291878,0.01265816310212475,0.5070369787202438,0.030006759320985645,0.0,0.0
366,-0.10964676885266729,-0.030246284931905693,0.2876118190681824,0.012637343939548105,0.5076366211771607,0.029957470095478465,0.0,0.0
367,-0.11025119598976083,-0.03019641267122358,0.28786435741245814,0.012616483764747818,0.5082352768730537,0.029908083537140993,0.0,0.0
368,-0.11085462471526727,-0.03014644409200196,0.28811647814984115,0.012595583383590032,0.508832943880379,0.02985860155442747,0.0,0.0
369,-0.11145705312194415,-0.030096381104236396,0.28836818048420315,0.012574643594777614,0.5094296203095922,0.02980902603883181,0.0,0.0
370,-0.11205847934057873,-0.030046225600928463,0.2886194636353188,0.012553665189906039,0.51002530430881,0.029759358865019972,0.0,0.0
371,-0.11265890153964951,-0.029995979458218382,0.28887032683872405,0.01253264895351883,0.5106199940634756,0.029709601890961314,0.0,0.0
372,-0.11325831792499023,-0.029945644535516656,0.28912076934557557,0.012511595663162584,0.5112136877960254,0.02965975695805894,0.0,0.0
373,-0.11385672673945667,-0.029895222675634672,0.28937079042251157,0.012490506089441572,0.5118063837655594,0.029609825891279057,0.0,0.0
374,-0.1144541262625959,-0.02984471570491433,0.2896203893515133,0.012469380996071916,0.5123980802675138,0.02955981049927931,0.0,0.0
375,-0.11505051481031825,-0.029794125433356643,0.28986956542976794,0.012448221139935359,0.5129887756333356,0.02950971257453617,0.0,0.0
376,-0.11564589073457167,-0.029743453654749383,0.2901183179695324,0.012427027271132618,0.5135784682301607,0.029459533893471307,0.0,0.0
377,-0.11624025242301882,-0.029692702146793717,0.2903666462979982,0.012405800133036327,0.5141671564604942,0.029409276216577022,0.0,0.0
378,-0.11683359829871656,-0.029641872671229898,0.29061454975715745,0.012384540462343576,0.5147548387618922,0.029358941288540705,0.0,0.0
379,-0.117425926819798,-0.02959096697396198,0.29086202770367,0.01236324898912805,0.5153415136066481,0.029308530838368336,0.0,0.0
380,-0.11801723647915698,-0.029539986785181577,0.2911090795087312,0.012341926436891767,0.5159271795014795,0.029258046579507042,0.0,0.0
381,-0.11860752580413508,-0.02948893381949067,0.2913557045579414,0.012320573522616415,0.5165118349872181,0.029207490209966724,0.0,0.0
382,-0.11919679335621106,-0.029437809776023494,0.29160190225117555,0.012299190956814303,0.5170954786385027,0.029156863412440726,0.0,0.0
383,-0.11978503773069267,-0.02938661633856745,0.29184767200245465,0.01227777944357892,0.5176781090634737,0.029106167854425612,0.0,0.0
384,-0.12037225755641096,-0.029335355175683135,0.2920930132398179,0.012256339680635104,0.5182597249034704,0.029055405188340003,0.0,0.0
385,-0.12095845149541688,-0.02928402794082343,0.2923379254051956,0.01223487235938883,0.5188403248327309,0.029004577051642503,0.0,0.0
386,-0.12154361824268041,-0.029232636272451675,0.2925824079542835,0.012213378164976618,0.5194199075580935,0.02895368506694874,0.0,0.0
387,-0.12212775652579183,-0.02918118179415894,0.2928264603564177,0.012191857776314558,0.5199984718187017,0.0289027308421475,0.0,0.0
388,-0.1227108651046655,-0.029129666114780416,0.29307008209445085,0.01217031186614697,0.5205760163857104,0.02885171597051595,0.0,0.0
389,-0.1232929427712459,-0.02907809082851089,0.29331327266462925,0.012148741101094677,0.5211525400619945,0.02880064203083402,0.0,0.0
390,-0.12387398834921597,-0.02902645751501935,0.2935560315764707,0.012127146141702927,0.521728041681861,0.028749510587497897,0.0,0.0
391,-0.12445400069370767,-0.028974767739562705,0.2937983583526435,0.012105527642488931,0.5223025201107617,0.028698323190632615,0.0,0.0
392,-0.12503297869101496,-0.02892302305309866,0.2940402525288466,0.012083886251989051,0.522875974245009,0.028647081376203837,0.0,0.0
393,-0.1256109212583089,-0.02887122499239769,0.29428171365369,0.012062222612805623,0.5234484030114941,0.028595786666128747,0.0,0.0
394,-0.12618782734335499,-0.028819375080154176,0.294522741288577,0.012040537361653416,0.524019805367407,0.028544440568386103,0.0,0.0
395,-0.12676369592423278,-0.02876747482509671,0.29476333500758656,0.01201883112940575,0.5245901802999586,0.02849304457712545,0.0,0.0
396,-0.12733852600905768,-0.028715525722097526,0.29500349439735724,0.01199710454114025,0.5251595268261058,0.028441600172775503,0.0,0.0
397,-0.12791231663570485,-0.028663529252281106,0.2952432190569714,0.011975358216184253,0.5257278439922772,0.028390108822151684,0.0,0.0
398,-0.12848506687153538,-0.028611486883131962,0.2954825085978409,0.011953592768159872,0.5262951308741031,0.028338571978562863,0.0,0.0
399,-0.12905677581312452,-0.028559400068601592,0.29572136264359344,0.011931808805028712,0.5268613865761451,0.02828699108191726,0.0,0.0
400,-0.12962744258599215,-0.028507270249214615,0.29595978082995955,0.011910006929136253,0.5274266102316305,0.028235367558827548,0.0,0.0
401,-0.13019706634433523,-0.0284550988521741,0.296197762804661,0.011888187737255881,0.5279908010021864,0.028183702822715158,0.0,0.0
402,-0.1307656462707624,-0.02840288729146609,0.29643530822729963,0.011866351820632594,0.5285539580775773,0.02813199827391378,0.0,0.0
403,-0.13133318157603077,-0.02835063696796332,0.29667241676924727,0.011844499765026368,0.5291160806754445,0.02808025529977207,0.0,0.0
404,-0.13189967149878462,-0.02829834926952816,0.29690908811353645,0.011822632150755201,0.529677168041047,0.028028475274755587,0.0,0.0
405,-0.1324651153052962,-0.028246025571114757,0.297145321954752,0.011800749552737817,0.5302372194470055,0.02797665956054794,0.0,0.0
406,-0.13302951228920862,-0.0281936672348704,0.29738111799892347,0.011778852540536053,0.5307962341930471,0.027924809506151164,0.0,0.0
407,-0.1335928617712807,-0.02814127561023612,0.29761647596341845,0.011756941678396922,0.5313542116057531,0.02787292644798534,0.0,0.0
408,-0.13415516309913392,-0.02808885203404652,0.29785139557683665,0.011735017525294354,0.5319111510383081,0.02782101170998744,0.0,0.0
409,-0.1347164156470011,-0.028036397830628838,0.29808587657890495,0.011713080634970613,0.5324670518702516,0.02776906660370943,0.0,0.0
410,-0.1352766188154774,-0.027983914311901257,0.29831991872037295,0.011691131555977416,0.5330219135072307,0.027717092428415625,0.0,0.0
411,-0.1358357720312731,-0.027931402777470467,0.29855352176290983,0.011669170831716712,0.5335757353807563,0.027665090471179283,0.0,0.0
412,-0.13639387474696826,-0.02787886451472849,0.29878668547900167,0.011647199000481183,0.5341285169479593,0.027613062006978495,0.0,0.0
413,-0.13695092644076948,-0.027826300798948742,0.2990194096518496,0.011625216595494405,0.53468025769135,0.027561008298791313,0.0,0.0
414,-0.1375069266162684,-0.027773712893381403,0.2992516940752688,0.011603224144950724,0.535230957118579,0.027508930597690166,0.0,0.0
415,-0.13806187480220225,-0.027721102049348016,0.2994835385535885,0.011581222172054822,0.5357806147622004,0.027456830142935564,0.0,0.0
416,-0.13861577055221616,-0.027668469506335412,0.2997149429015524,0.011559211195060981,0.5363292301794359,0.02740470816206908,0.0,0.0
417,-0.13916861344462741,-0.027615816492088874,0.29994590694422,0.01153719172731205,0.5368768029519416,0.027352565871005614,0.0,0.0
418,-0.1397204030821916,-0.027563144222704623,0.3001764305168691,0.01151516427727811,0.5374233326855765,0.027300404474124972,0.0,0.0
419,-0.14027113909187053,-0.02751045390272159,0.30040651346489833,0.011493129348594856,0.5379688190101725,0.027248225164362743,0.0,0.0
420,-0.1408208211246019,-0.02745774672521248,0.300636155643731,0.011471087440101679,0.5385132615793066,0.027196029123300474,0.0,0.0
421,-0.14136944885507097,-0.027405023871874157,0.3008653569187196,0.011449039045879456,0.5390566600700746,0.027143817521255165,0.0,0.0
422,-0.14191702198148398,-0.027352286513117347,0.30109411716505097,0.01142698465528806,0.5395990141828668,0.027091591517368084,0.0,0.0
423,-0.14246354022534324,-0.027299535808155626,0.30132243626765226,0.01140492475300358,0.5401403236411453,0.027039352259692916,0.0,0.0
424,-0.1430090033312241,-0.027246772905093763,0.3015503141210976,0.011382859819055263,0.540680588191223,0.02698710088528321,0.0,0.0
425,-0.14355341106655362,-0.027193998941015384,0.3017777506295155,0.011360790328862167,0.5412198076020448,0.026934838520279197,0.0,0.0
426,-0.14409676322139106,-0.02714121504206996,0.30200474570649716,0.011338716753269541,0.5417579816649697,0.026882566279993927,0.0,0.0
427,-0.14463905960821008,-0.02708842232355913,0.3022312992750051,0.011316639558584926,0.5422951101935557,0.02683028526899875,0.0,0.0
428,-0.14518030006168256,-0.02703562189002239,0.302457411267283,0.011294559206613992,0.5428311930233454,0.026777996581208153,0.0,0.0
429,-0.1457204844384643,-0.02698281483532211,0.3026830816247659,0.011272476154696082,0.5433662300116537,0.02672570129996396,0.0,0.0
430,-0.14625961261698225,-0.026930002242727916,0.3029083102979914,0.011250390855739508,0.5439002210373576,0.026673400498118872,0.0,0.0
431,-0.14679768449722355,-0.026877185185000412,0.30313309724651105,0.011228303758256562,0.5444331660006866,0.026621095238119386,0.0,0.0
432,-0.14733470000052615,-0.026824364724474293,0.303357442438803,0.011206215306398272,0.544965064823016,0.02656878657208808,0.0,0.0
433,-0.1478706590693711,-0.026771541913140805,0.30358134585218527,0.011184125939988888,0.5454959174466609,0.026516475541905272,0.0,0.0
434,-0.14840556166717656,-0.026718717792729597,0.30380480747272914,0.011162036094560115,0.5460257238346723,0.026464163179290057,0.0,0.0
435,-0.1489394077780933,-0.026665893394789923,0.3040278272951741,0.01113994620138507,0.5465544839706347,0.026411850505880737,0.0,0.0
436,-0.14947219740680198,-0.026613069740771256,0.30425040532284264,0.011117856687511994,0.547082197858465,0.026359538533314627,0.0,0.0
437,-0.1500039305783119,-0.026560247842103278,0.3044725415675563,0.011095767975797711,0.5476088655222138,0.026307228263307256,0.0,0.0
438,-0.15053460733776142,-0.026507428700275257,0.3046942360495522,0.011073680484940819,0.5481344870058672,0.026254920687730984,0.0,0.0
439,-0.15106422775021994,-0.026454613306914832,0.3049154887974,0.011051594629514641,0.5486590623731511,0.026202616788693,0.0,0.0
440,-0.15159279190049146,-0.02640180264386619,0.3051362998479199,0.011029510819999925,0.5491825917073364,0.026150317538612737,0.0,0.0
441,-0.1521202998929197,-0.026348997683267657,0.30535666924610105,0.011007429462817287,0.5497050751110464,0.0260980239002987,0.0,0.0
442,-0.15264675185119464,-0.026296199387628692,0.3055765970450207,0.01098535096035942,0.5502265127060648,0.02604573682702472,0.0,0.0
443,-0.1531721479181609,-0.02624340870990631,0.3057960833057639,0.01096327571102305,0.5507469046331464,0.02599345726260559,0.0,0.0
